espacio_cultural_id,provincia_id,localidad_id,provincia,localidad,nombre,direccion,latitud,longitud,denominacion_especifica,fuente,descripcion,jurisdiccion _declaratoria,fecha_de_inauguracion,decreto_o_ley,numero_de_decreto_o_ley,,,
9,6,6854100,Buenos Aires,25 de Mayo,Cementerio de la Verde,s/d,-35.45213889,-60.17388889,Lugar Histórico,"Comisión Nacional de Monumentos, de Lugares y de Bienes Históricos (CNMLBH)",s/d,Nacional,9/3/1989,Decreto,325,,,
9,6,6588100,Buenos Aires,9 de Julio,Pirámide que guarda los restos del Tte.Cnel. Estanislao Heredia y de 20 soldados muertos en acción el 27/6/1872 en la Campaña del Desierto,Cementerio de 9 de Julio,-35.47080556,-60.90519444,Sepulcro,"Comisión Nacional de Monumentos, de Lugares y de Bienes Históricos (CNMLBH)",s/d,Nacional,13/7/1982,Decreto,89,,,
9,6,6014010,Buenos Aires,Adolfo González Chaves,Ex Mercado Municipal,Sarmiento 158,-38.03375,-60.09841667,Bien de Interés Histórico y Artístico,"Comisión Nacional de Monumentos, de Lugares y de Bienes Históricos (CNMLBH)",s/d,Nacional,21/7/2014,Decreto,1138,,,
9,6,6014010,Buenos Aires,Adolfo González Chaves,Palacio Municipal,Bartolomé Mitre y Juan Elicagaray,-38.03283333,-60.09852778,Monumento Histórico,"Comisión Nacional de Monumentos, de Lugares y de Bienes Históricos (CNMLBH)",s/d,Nacional,21/7/2014,Decreto,1138,,,
9,6,6028010,Buenos Aires,Adrogué,Adrogué Tennis Club,Macías y Sánchez Nº 1846,-34.79519444,-58.39341667,Bien de Interés Histórico,"Comisión Nacional de Monumentos, de Lugares y de Bienes Históricos (CNMLBH)",s/d,Nacional,22/7/2014,Decreto,1163,,,
9,6,6462050,Buenos Aires,Alberdi,Delegación Municipal,Manuel Belgrano entre Bordelois y Sarmiento,-34.43886111,-61.81163889,Bien de Interés Histórico y Artístico,"Comisión Nacional de Monumentos, de Lugares y de Bienes Históricos (CNMLBH)",s/d,Nacional,21/7/2014,Decreto,1138,,,
9,6,6462050,Buenos Aires,Alberdi,Matadero Municipal,s/d,-34.44875,-61.83,Bien de Interés Histórico y Artístico,"Comisión Nacional de Monumentos, de Lugares y de Bienes Históricos (CNMLBH)",s/d,Nacional,21/7/2014,Decreto,1138,,,
9,6,6021010,Buenos Aires,Alberti,"Conjunto formado por la Plaza General José Arias; el Palacio Municipal, y la fachada de la Escuela de Enseñanza Media Nº 2",s/d,-35.03158333,-60.28025,Bien de Interés Histórico y Artístico,"Comisión Nacional de Monumentos, de Lugares y de Bienes Históricos (CNMLBH)",s/d,Nacional,21/7/2014,Decreto,1138,,,
9,6,6021010,Buenos Aires,Alberti,Portal de acceso al Parque General San Martín,Avenida General San Martín y Avenida Vaccarezza,-35.03158333,-60.28025,Bien de Interés Histórico y Artístico,"Comisión Nacional de Monumentos, de Lugares y de Bienes Históricos (CNMLBH)",s/d,Nacional,21/7/2014,Decreto,1138,,,
9,6,6462050,Buenos Aires,Alem,Matadero Municipal,s/d,-34.51375,-61.37861111,Bien de Interés Histórico y Artístico,"Comisión Nacional de Monumentos, de Lugares y de Bienes Históricos (CNMLBH)",s/d,Nacional,21/7/2014,Decreto,1138,,,
9,6,6035010,Buenos Aires,Avellaneda,"Murales de Berni ubicados en las paredes laterales de acceso público y en dos hornacinas de la pared del pullman del ex cine San Martín, actual Bingo 21",Avenida Mitre 219 al 237,-34.65847222,-58.37077778,Bien de Interés Histórico Artístico,"Comisión Nacional de Monumentos, de Lugares y de Bienes Históricos (CNMLBH)",s/d,Nacional,9/2/2001,Decreto,142,,,
9,6,6035010,Buenos Aires,Avellaneda,Teatro Roma,Sarmiento 109,-34.66216667,-58.36330556,Bien de Interés Histórico,"Comisión Nacional de Monumentos, de Lugares y de Bienes Históricos (CNMLBH)",s/d,Nacional,10/9/1997,Ley,24875,,,
9,6,6049020,Buenos Aires,Azul,Matadero Municipal,En el camino viejo a Tandil,-36.80788889,-59.82480556,Monumento Histórico,"Comisión Nacional de Monumentos, de Lugares y de Bienes Históricos (CNMLBH)",s/d,Nacional,21/7/2014,Decreto,1138,,,
9,6,6049020,Buenos Aires,Azul,Plaza San Martín,"Avenida San Martín y las calles Burgos, Yrigoyen y Colón",-36.77747222,-59.86341667,Monumento Histórico,"Comisión Nacional de Monumentos, de Lugares y de Bienes Históricos (CNMLBH)",s/d,Nacional,21/7/2014,Decreto,1138,,,
9,6,6049020,Buenos Aires,Azul,Portal del Cementerio Municipal,Calles Necochea y Lamadrid,-36.77383333,-59.85138889,Monumento Histórico,"Comisión Nacional de Monumentos, de Lugares y de Bienes Históricos (CNMLBH)",s/d,Nacional,21/7/2014,Decreto,1138,,,
9,6,6049020,Buenos Aires,Azul,Teatro Español,San Martín 427,-36.77786111,-59.86394444,Bien de interés histórico-artístico,"Comisión Nacional de Monumentos, de Lugares y de Bienes Históricos (CNMLBH)",s/d,Nacional,21/6/2011,Decreto,837,,,
9,6,6056010,Buenos Aires,Bahía Blanca,Barrio Inglés,"Brickman, O'Higgins, Donado Y Avenida Colón",-38.73002778,-62.27875,Monumento Histórico,"Comisión Nacional de Monumentos, de Lugares y de Bienes Históricos (CNMLBH)",s/d,Nacional,19/11/2014,Decreto,2181,,,
9,6,6056010,Buenos Aires,Bahía Blanca,Batería Nº 4 de la Base Naval de Puerto Belgrano,s/d,-38.89352778,-62.09761111,Monumento Histórico,"Comisión Nacional de Monumentos, de Lugares y de Bienes Históricos (CNMLBH)",s/d,Nacional,8/11/1961,Decreto,10525,,,
9,6,6056010,Buenos Aires,Bahía Blanca,Biblioteca Bernardino Rivadavia,Colón 31,-38.71861111,-62.26708333,Monumento Histórico,"Comisión Nacional de Monumentos, de Lugares y de Bienes Históricos (CNMLBH)",s/d,Nacional,2/10/2008,Decreto,1592,,,
9,6,6056010,Buenos Aires,Bahía Blanca,Club Argentino,Avenida Colón 67,-38.71927778,-62.26797222,Monumento Histórico,"Comisión Nacional de Monumentos, de Lugares y de Bienes Históricos (CNMLBH)",s/d,Nacional,8/1/2001,Decreto,12,,,
9,6,6056010,Buenos Aires,Bahía Blanca,Edificio de Correos y Telégrafos,Vicente López y Moreno,-38.71844444,-62268,Monumento Histórico,"Comisión Nacional de Monumentos, de Lugares y de Bienes Históricos (CNMLBH)",s/d,Nacional,24/10/1997,Decreto,1110,,,
9,6,6056010,Buenos Aires,Bahía Blanca,Elevadores de Granos Nros. 3 y 4 del conjunto de la ex Junta Nacional de Granos del Puerto de Ingeniero White,Carreaga 3900,-38.78725,-62.26616667,Monumento Histórico,"Comisión Nacional de Monumentos, de Lugares y de Bienes Históricos (CNMLBH)",s/d,Nacional,19/11/2014,Decreto,2181,,,
9,6,6056010,Buenos Aires,Bahía Blanca,Estación Spurr,Tierra del Fuego s/n y Esmeralda s/n,-38.75483333,-62.25480556,Monumento Histórico,"Comisión Nacional de Monumentos, de Lugares y de Bienes Históricos (CNMLBH)",s/d,Nacional,19/11/2014,Decreto,2181,,,
9,6,6056010,Buenos Aires,Bahía Blanca,Estación Sur (Ex Terminal Bahía Blanca del Ex Ferrocarril Sur),"Avenida General Daniel Cerri, calle Montevideo, Avenida Falucho, Avenida Parchapp y calle Darwin",-38.72152778,-62.25455556,Monumento Histórico,"Comisión Nacional de Monumentos, de Lugares y de Bienes Históricos (CNMLBH)",s/d,Nacional,19/11/2014,Decreto,2181,,,
9,6,6056010,Buenos Aires,Bahía Blanca,Ex hotel de Inmigrantes,Saavedra 951 esquina Ing. Luiggi,-38.72886111,-62.25872222,Monumento Histórico,"Comisión Nacional de Monumentos, de Lugares y de Bienes Históricos (CNMLBH)",s/d,Nacional,10/8/2004,Decreto,1020,,,
9,6,6056010,Buenos Aires,Bahía Blanca,"Ex Mercado de Concentración de Lanas, Frutos y Cueros “Victoria”",Donado 1020,-38.72977778,-62.27625,Monumento Histórico,"Comisión Nacional de Monumentos, de Lugares y de Bienes Históricos (CNMLBH)",s/d,Nacional,19/11/2014,Decreto,2181,,,
9,6,6056010,Buenos Aires,Bahía Blanca,Ex sede del Banco de la Provincia de Bs. As.,Alsina 45,-38.7185,-62.26466667,Monumento Histórico,"Comisión Nacional de Monumentos, de Lugares y de Bienes Históricos (CNMLBH)",s/d,Nacional,10/8/2004,Decreto,1020,,,
9,6,6056010,Buenos Aires,Bahía Blanca,Ex Usina Ferroviaria y Talleres Anexos,"Donado Nº 1079, esquina Brickman 180",-38.72986111,-62.27711111,Monumento Histórico,"Comisión Nacional de Monumentos, de Lugares y de Bienes Históricos (CNMLBH)",s/d,Nacional,19/11/2014,Decreto,2181,,,
9,6,6056010,Buenos Aires,Bahía Blanca,Fortaleza Protectora Argentina,s/d,-38.70525,-62.24863889,Lugar Histórico,"Comisión Nacional de Monumentos, de Lugares y de Bienes Históricos (CNMLBH)",s/d,Nacional,26/5/1982,Decreto,1035,,,
9,6,6056010,Buenos Aires,Bahía Blanca,Palacio Municipal,Alsina 65 y Belgrano 54,-38.71833333,-62.26405556,Monumento Histórico,"Comisión Nacional de Monumentos, de Lugares y de Bienes Históricos (CNMLBH)",s/d,Nacional,10/8/2004,Decreto,1020,,,
9,6,6056010,Buenos Aires,Bahía Blanca,Plaza Rivadavia,"Entre las calles Zelarrayán - San Martín, Alsina, Estomba - Chiclana y Sarmiento",-38.71766667,-62.26552778,Lugar Histórico,"Comisión Nacional de Monumentos, de Lugares y de Bienes Históricos (CNMLBH)",s/d,Nacional,10/8/2004,Decreto,1020,,,
9,6,6056010,Buenos Aires,Bahía Blanca,Puente Ferroviario Colón,s/d,-38.72772222,-62.27816667,Bien de Interés Histórico,"Comisión Nacional de Monumentos, de Lugares y de Bienes Históricos (CNMLBH)",s/d,Nacional,19/11/2014,Decreto,2181,,,
9,6,6056010,Buenos Aires,Bahía Blanca,Teatro Municipal,Alsina 425,-38.71497222,-62.25994444,Monumento Histórico,"Comisión Nacional de Monumentos, de Lugares y de Bienes Históricos (CNMLBH)",s/d,Nacional,21/6/2011,Decreto,837,,,
9,6,6056010,Buenos Aires,Bahía Blanca - Ingeniero White,Usina General San Martín,"Ruta Nacional 252, acceso a Puertos",-38.78813889,-62.26216667,Monumento Histórico,"Comisión Nacional de Monumentos, de Lugares y de Bienes Históricos (CNMLBH)",s/d,Nacional,11/4/2002,Ley,25580,,,
9,6,6063010,Buenos Aires,Balcarce,Matadero Municipal,Avenida Eva Perón entre las calles Nros. 116 y 118,-37.83197222,-58.27338889,Monumento Histórico,"Comisión Nacional de Monumentos, de Lugares y de Bienes Históricos (CNMLBH)",s/d,Nacional,21/7/2014,Decreto,1138,,,
9,6,6063010,Buenos Aires,Balcarce,Plaza Libertad,"Calles Nros. 15, 16, 17 y 18",-37.8465,-58.25552778,Monumento Histórico,"Comisión Nacional de Monumentos, de Lugares y de Bienes Históricos (CNMLBH)",s/d,Nacional,21/7/2014,Decreto,1138,,,
9,6,6490010,Buenos Aires,Banfield,"Quinta ""Los Leones""",Alvear 920,-34.74863889,-58.40608333,Monumento Histórico,"Comisión Nacional de Monumentos, de Lugares y de Bienes Históricos (CNMLBH)",s/d,Nacional,9/10/2007,Decreto,1380,,,
9,6,6070010,Buenos Aires,Baradero,Domingo de Oro,Cementerio de Baradero,-33.80930556,-59.49294444,Sepulcro,"Comisión Nacional de Monumentos, de Lugares y de Bienes Históricos (CNMLBH)",s/d,Nacional,29/11/1950,Decreto,25403,,,
9,6,6084020,Buenos Aires,Benito Juárez,Casco de la Estancia El Sol Argentino,A 20 Km de la Ruta Provincial Nº 86 y a 30 Km de la localidad de Benito Juárez,-37.62175,-60.30966667,Monumento Histórico,"Comisión Nacional de Monumentos, de Lugares y de Bienes Históricos (CNMLBH)",s/d,Nacional,20/3/1997,Decreto,262,,,
9,6,6098010,Buenos Aires,Berisso,Calle Nueva York,s/d,-34.86083333,-57.88980556,Lugar Histórico,"Comisión Nacional de Monumentos, de Lugares y de Bienes Históricos (CNMLBH)",s/d,Nacional,27/6/2005,Decreto,735,,,
9,6,6658010,Buenos Aires,Bernal,Quinta de Santa Coloma,Gral. Roca 833,-34.70252778,-58.28713889,Monumento Histórico,"Comisión Nacional de Monumentos, de Lugares y de Bienes Históricos (CNMLBH)",s/d,Nacional,10/12/1945,Decreto,30838,,,
9,6,6105060,Buenos Aires,Bolívar,Combate de San Carlos,s/d,-36.24363889,-61.12952778,Lugar Histórico,"Comisión Nacional de Monumentos, de Lugares y de Bienes Históricos (CNMLBH)",s/d,Nacional,13/7/1943,Decreto,2478,,,
9,6,6049030,Buenos Aires,Cacharí,Delegación Municipal,Belgrano 1663,-36.37697222,-59.50519444,Bien de Interés Histórico y Artístico,"Comisión Nacional de Monumentos, de Lugares y de Bienes Históricos (CNMLBH)",s/d,Nacional,21/7/2014,Decreto,1138,,,
9,6,6134030,Buenos Aires,Cañuelas,Casco de la Estancia San Martín de Vicente Casares,"Ubicada en el Km 50,5 de la Ruta Provincial Nº 205",-34.96144444,-58.64941667,Monumento Histórico,"Comisión Nacional de Monumentos, de Lugares y de Bienes Históricos (CNMLBH)",s/d,Nacional,20/3/1997,Decreto,262,,,
9,6,6134030,Buenos Aires,Cañuelas,"Estancia ""La Caledonia""","Dentro del límite del Cuartel 6°. Por Ruta 6, a 5 km de la intersección con la Ruta Provincial N°205",-35.03547222,-58.66705556,Monumento Histórico,"Comisión Nacional de Monumentos, de Lugares y de Bienes Históricos (CNMLBH)",s/d,Nacional,14/8/1979,Decreto,2015,,,
9,6,6266020,Buenos Aires,Capilla del Señor,Pueblo de Capilla del Señor,s/d,-34.28719444,-59.10183333,Bien de Interés Histórico,"Comisión Nacional de Monumentos, de Lugares y de Bienes Históricos (CNMLBH)",s/d,Nacional,21/9/1994,Decreto,1648,,,
9,6,6007010,Buenos Aires,Carhué,Cruz del Cementerio ubicada en el Balneario “El Cristo”,Balneario “El Cristo”,-37.16905556,-62.78136111,Bien de Interés Histórico y Artístico,"Comisión Nacional de Monumentos, de Lugares y de Bienes Históricos (CNMLBH)",s/d,Nacional,21/7/2014,Decreto,1138,,,
9,6,6007010,Buenos Aires,Carhué,Matadero Municipal,s/d,-37.14519444,-62.78552778,Bien de Interés Histórico y Artístico,"Comisión Nacional de Monumentos, de Lugares y de Bienes Históricos (CNMLBH)",s/d,Nacional,21/7/2014,Decreto,1138,,,
9,6,6007010,Buenos Aires,Carhué,Palacio Municipal,Rivadavia y Carlos Pellegrini,-37.18033333,-62.76119444,Monumento Histórico,"Comisión Nacional de Monumentos, de Lugares y de Bienes Históricos (CNMLBH)",s/d,Nacional,21/7/2014,Decreto,1138,,,
9,6,6147030,Buenos Aires,Carlos Casares,Fuerte Gral. Paz o Comandancia,s/d,-35.62258333,-61.36535556,Lugar Histórico,"Comisión Nacional de Monumentos, de Lugares y de Bienes Históricos (CNMLBH)",s/d,Nacional,23/5/1983,Decreto,1237,,,
9,6,6602030,Buenos Aires,Carmen de Patagones,Antigua vivienda del vecino fundador Bernardo Bartuille - Casa de la Cultura de la Ciudad de Carmen de Patagones,Mitre y Comodoro Rivadavia,-40.80352778,-62.98436111,Monumento Histórico,"Comisión Nacional de Monumentos, de Lugares y de Bienes Históricos (CNMLBH)",s/d,Nacional,21/7/2003,Decreto,401,,,
9,6,6602030,Buenos Aires,Carmen de Patagones,Antiguo Fuerte de Nuestra Señora del Carmen y su Plaza de Armas,"Entre las calles 7 de Marzo, Bynn, Dr. Baraja y Olivera",-40802,-62.98475,Lugar Histórico,"Comisión Nacional de Monumentos, de Lugares y de Bienes Históricos (CNMLBH)",s/d,Nacional,21/7/2003,Decreto,401,,,
9,6,6602030,Buenos Aires,Carmen de Patagones,"Archivos conservados en el Museo Histórico Regional ""Emma Nozzi"" del Banco de la Provincia de Buenos Aires",José Juan Biedma 62/64,-40.80325,-62.98577778,Bien de Interés Histórico,"Comisión Nacional de Monumentos, de Lugares y de Bienes Históricos (CNMLBH)",s/d,Nacional,21/7/2003,Decreto,401,,,
9,6,6602030,Buenos Aires,Carmen de Patagones,Casa de Andrés García,Mitre y Bynon,-40.80383333,-62.98411111,Monumento Histórico,"Comisión Nacional de Monumentos, de Lugares y de Bienes Históricos (CNMLBH)",s/d,Nacional,21/7/2003,Decreto,401,,,
9,6,6602030,Buenos Aires,Carmen de Patagones,Casa de Mitre - Rancho de Rial (c/ su cueva maragata anexa),Mitre 94,-40.80286111,-62.98533333,Monumento Histórico,"Comisión Nacional de Monumentos, de Lugares y de Bienes Históricos (CNMLBH)",s/d,Nacional,21/7/2003,Decreto,401,,,
9,6,6602030,Buenos Aires,Carmen de Patagones,"Casa histórica ""La Carlota"" - Anexo del Museo Histórico Regional ""Emma Nozzi""",Mitre y Bynon,-40.80375,-62.98402778,Monumento Histórico,"Comisión Nacional de Monumentos, de Lugares y de Bienes Históricos (CNMLBH)",s/d,Nacional,21/7/2003,Decreto,401,,,
9,6,6602030,Buenos Aires,Carmen de Patagones,"Casa Histórica del Banco de la Provincia de Buenos Aires - sede de Museo Histórico Regional ""Emma Nozzi"" (c/ su cueva maragat anexa) (Antigua casa de la Real Hacienda - capilla Vieja - ex sede de la firma Aguirre y Murga y del colegio salesiano de Santa",José Juan Biedma 62/64,-40.80325,-62.98577778,Monumento Histórico,"Comisión Nacional de Monumentos, de Lugares y de Bienes Históricos (CNMLBH)",s/d,Nacional,21/7/2003,Decreto,401,,,
9,6,6602030,Buenos Aires,Carmen de Patagones,Casa Natal del Comandante Luis Piedrabuena,Calle Roca y la ribera del Río Negro,-40.80430556,-62985,Lugar Histórico,"Comisión Nacional de Monumentos, de Lugares y de Bienes Históricos (CNMLBH)",s/d,Nacional,21/7/2003,Decreto,401,,,
9,6,6602030,Buenos Aires,Carmen de Patagones,Casa particular de Ambrosio Mitre y familia,"Harosteguy S/N, entre Villegas y Zambonini",-40.80247222,-62.98047222,Lugar Histórico,"Comisión Nacional de Monumentos, de Lugares y de Bienes Históricos (CNMLBH)",s/d,Nacional,21/7/2003,Decreto,401,,,
9,6,6602030,Buenos Aires,Carmen de Patagones,"Casa que perteneció al cardenal Juan Cagliero - Anexo del Museo Histórico Regional ""Emma Nozzi"" del Banco de la Provincia de Buenos Aires",José Juan Biedma 56/58,-40.80325,-62.98577778,Monumento Histórico,"Comisión Nacional de Monumentos, de Lugares y de Bienes Históricos (CNMLBH)",s/d,Nacional,21/7/2003,Decreto,401,,,
9,6,6602030,Buenos Aires,Carmen de Patagones,Cerro de la Caballada,s/d,-40.81108333,-62.96894444,Lugar Histórico,"Comisión Nacional de Monumentos, de Lugares y de Bienes Históricos (CNMLBH)",s/d,Nacional,17/10/1960,Decreto,12641,,,
9,6,6602030,Buenos Aires,Carmen de Patagones,Iglesia Parroquial Nuestra Señora del Carmen,Comodoro Rivadavia 175,-40.80236111,-62.98391667,Monumento Histórico,"Comisión Nacional de Monumentos, de Lugares y de Bienes Históricos (CNMLBH)",s/d,Nacional,21/7/2003,Decreto,401,,,
9,6,6602030,Buenos Aires,Carmen de Patagones,Luis Piedrabuena,Iglesia Parroquial Nuestra Señora del Carmen,-40.80236111,-62.98419444,Sepulcro,"Comisión Nacional de Monumentos, de Lugares y de Bienes Históricos (CNMLBH)",s/d,Nacional,12/6/1962,Decreto,5407,,,
9,6,6602030,Buenos Aires,Carmen de Patagones,Torre de la Capilla del Fuerte,"Calle Dr. Baraja, vereda este - Calle Olivera, vereda norte y Comodoro Rivadavia.",-40.80219444,-62.98480556,Monumento Histórico,"Comisión Nacional de Monumentos, de Lugares y de Bienes Históricos (CNMLBH)",s/d,Nacional,21/5/1942,Decreto,120411,,,
9,6,6602030,Buenos Aires,Carmen de Patagones,Traza urbana de Carmén de Patagones (en su calidad de poblado histórico),s/d,-40.80122222,-62.9825,Bien de Interés Histórico,"Comisión Nacional de Monumentos, de Lugares y de Bienes Históricos (CNMLBH)",s/d,Nacional,21/7/2003,Decreto,401,,,
9,6,6602030,Buenos Aires,Carmen de Patagones,Trofeos de la heróica acción del 7 de Marzo de 1827 (Iglesia Parroquial Nuestra Señora del Carmen),Comodoro Rivadavia 175,-40.80236111,-62.98391667,Bien de Interés Histórico,"Comisión Nacional de Monumentos, de Lugares y de Bienes Históricos (CNMLBH)",s/d,Nacional,21/7/2003,Decreto,401,,,
9,6,6602030,Buenos Aires,Carmen de Patagones,Vivienda familiar del Comodoro Martín Rivadavia - Actual sucursal Patagones del Banco de la Provincia de Buenos Aires,Comodoro Rivadavia y Alsina,-40.80125,-62983,Lugar Histórico,"Comisión Nacional de Monumentos, de Lugares y de Bienes Históricos (CNMLBH)",s/d,Nacional,21/7/2003,Decreto,401,,,
9,6,6399020,Buenos Aires,Casbas,Delegación Municipal,s/d,-36.75786111,-62.50333333,Bien de Interés Histórico y Artístico,"Comisión Nacional de Monumentos, de Lugares y de Bienes Históricos (CNMLBH)",s/d,Nacional,21/7/2014,Decreto,1138,,,
9,6,6357080,Buenos Aires,Chapadmalal,Complejo Unidad Turística,s/d,-38.20558333,-57.69222222,Monumento Histórico,"Comisión Nacional de Monumentos, de Lugares y de Bienes Históricos (CNMLBH)",s/d,Nacional,24/6/2013,Decreto,784,,,
9,6,6217010,Buenos Aires,Chascomús,Caídos en la Batalla de Chascomús (Mausoleo),s/d,-35.57944444,-58.00863889,Sepulcro,"Comisión Nacional de Monumentos, de Lugares y de Bienes Históricos (CNMLBH)",s/d,Nacional,9/10/1939,Ley,12622,,,
9,6,6217010,Buenos Aires,Chascomús,Capilla de los Negros,s/d,-35.58325,-58.00683333,Lugar Histórico,"Comisión Nacional de Monumentos, de Lugares y de Bienes Históricos (CNMLBH)",s/d,Nacional,22/6/1962,Decreto,5674,,,
9,6,6217010,Buenos Aires,Chascomús,Palacio Municipal,Calle Cramer entre las calles Mitre y Sarmiento,-35.57836111,-58.01377778,Bien de Interés Histórico y Artístico,"Comisión Nacional de Monumentos, de Lugares y de Bienes Históricos (CNMLBH)",s/d,Nacional,21/7/2014,Decreto,1138,,,
9,6,6049040,Buenos Aires,Chillar,Delegación Municipal,s/d,-37.31347222,-59985,Bien de Interés Histórico y Artístico,"Comisión Nacional de Monumentos, de Lugares y de Bienes Históricos (CNMLBH)",s/d,Nacional,21/7/2014,Decreto,1138,,,
9,6,6049040,Buenos Aires,Chillar,Matadero Municipal,s/d,-37.30816667,-59.99883333,Bien de Interés Histórico y Artístico,"Comisión Nacional de Monumentos, de Lugares y de Bienes Históricos (CNMLBH)",s/d,Nacional,21/7/2014,Decreto,1138,,,
9,6,6224010,Buenos Aires,Chivilcoy,Casco de la Estancia La Rica,s/d,-34.99541667,-59.78888889,Monumento Histórico,"Comisión Nacional de Monumentos, de Lugares y de Bienes Históricos (CNMLBH)",s/d,Nacional,8/3/2010,Decreto,332,,,
9,6,6224010,Buenos Aires,Chivilcoy,Estatua de Carlos Pellegrini,Plaza 25 de Mayo,-34.89694444,-60.01891667,Bien de Interés Artístico,"Comisión Nacional de Monumentos, de Lugares y de Bienes Históricos (CNMLBH)",s/d,Nacional,8/3/2010,Decreto,332,,,
9,6,6224010,Buenos Aires,Chivilcoy,Palacio Municipal,25 de Mayo Nº 25,-34.89802778,-60.01952778,Monumento Histórico,"Comisión Nacional de Monumentos, de Lugares y de Bienes Históricos (CNMLBH)",s/d,Nacional,8/3/2010,Decreto,332,,,
9,6,6224010,Buenos Aires,Chivilcoy,Plaza 25 de Mayo,"Entre las calles 25 de Mayo, San Martín, Moreno e H. Yrigoyen",-34.89694444,-60.01891667,Lugar Histórico,"Comisión Nacional de Monumentos, de Lugares y de Bienes Históricos (CNMLBH)",s/d,Nacional,8/3/2010,Decreto,332,,,
9,6,6224010,Buenos Aires,Chivilcoy,Templo Nuestra Sra. del Rosario - Parroquia de San Pedro Apóstol,9 de Julio Nº 40,-34.89736111,-60.02052778,Monumento Histórico,"Comisión Nacional de Monumentos, de Lugares y de Bienes Históricos (CNMLBH)",s/d,Nacional,8/3/2010,Decreto,332,,,
9,6,6840010,Buenos Aires,Ciudadela,Cuarteles de Ciudadela (actual Museo Histórico Ejército Argentino),"Comesaña, Reconquista, Pellegrini y Campo de ejercicios del RC Nº8",-34.63091667,-58.54327778,Bien de Interés Histórico,"Comisión Nacional de Monumentos, de Lugares y de Bienes Históricos (CNMLBH)",s/d,Nacional,20/8/1996,Decreto,974,,,
9,6,6182020,Buenos Aires,Cnel. Rosales y Monte Hermoso,"Reserva Geológica, Paleontológica y Arqueológica Provincial Pehuen-Co",s/d,-38.99134444,-61.55814444,Lugar Histórico,"Comisión Nacional de Monumentos, de Lugares y de Bienes Históricos (CNMLBH)",s/d,Nacional,22/12/2015,Ley,27220,,,
9,6,6196010,Buenos Aires,Coronel Pringles,Conjunto integrado por la Plaza Juan Pascual Pringles y el Palacio Municipal,s/d,-37.98522222,-61.34975,Bien de Interés Histórico y Artístico,"Comisión Nacional de Monumentos, de Lugares y de Bienes Históricos (CNMLBH)",s/d,Nacional,21/7/2014,Decreto,1138,,,
9,6,6196010,Buenos Aires,Coronel Pringles,Cruz del Cementerio,s/d,-37.97641667,-61.32988889,Bien de Interés Histórico y Artístico,"Comisión Nacional de Monumentos, de Lugares y de Bienes Históricos (CNMLBH)",s/d,Nacional,21/7/2014,Decreto,1138,,,
9,6,6196010,Buenos Aires,Coronel Pringles,Matadero Municipal,Calle Manuel Belgrano y boulevard José Hernández,-37.99405556,-61.34472222,Monumento Histórico,"Comisión Nacional de Monumentos, de Lugares y de Bienes Históricos (CNMLBH)",s/d,Nacional,21/7/2014,Decreto,1138,,,
9,6,6749010,Buenos Aires,Delta del Paraná,Solar y casa que habito D.F.Sarmiento (Río Paraná),Isla del Delta,-34.38305556,-58.57680556,Lugar Histórico,"Comisión Nacional de Monumentos, de Lugares y de Bienes Históricos (CNMLBH)",s/d,Nacional,8/6/1966,Decreto,4370,,,
9,6,6238010,Buenos Aires,Dolores,Pirámide de los Libres del Sur,Plaza Castelli,-36.31538889,-57.67561111,Monumento Histórico,"Comisión Nacional de Monumentos, de Lugares y de Bienes Históricos (CNMLBH)",s/d,Nacional,9/10/1939,Ley,12621,,,
9,6,6462020,Buenos Aires,El Dorado,Delegación Municipal,s/d,-34.65361111,-61.58461111,Bien de Interés Histórico y Artístico,"Comisión Nacional de Monumentos, de Lugares y de Bienes Históricos (CNMLBH)",s/d,Nacional,21/7/2014,Decreto,1138,,,
9,6,6568010,Buenos Aires,El Palomar,"Club Sitas, Sociedad Italiana del Tiro al Blanco, “Societa Italiana di Tiro a Segno”",Avenida Marconi 1225,-34.61761111,-58.58819444,Bien de Interés Histórico,"Comisión Nacional de Monumentos, de Lugares y de Bienes Históricos (CNMLBH)",s/d,Nacional,22/7/2014,Decreto,1163,,,
9,6,6568010,Buenos Aires,El Palomar,Ex Centro Clandestino de Detención “El Chalet”,"Hospital Nacional ""Alejandro Posadas""",-34.62905556,-58.57519444,Lugar Histórico,"Comisión Nacional de Monumentos, de Lugares y de Bienes Históricos (CNMLBH)",s/d,Nacional,10/8/2015,Decreto,1616,,,
9,6,6245010,Buenos Aires,Ensenada,Club de Regatas La Plata,Arroyo Doña Flora y Río Santiago,-34.84077778,-57.91836111,Bien de Interés Histórico,"Comisión Nacional de Monumentos, de Lugares y de Bienes Históricos (CNMLBH)",s/d,Nacional,22/7/2014,Decreto,1163,,,
9,6,6245010,Buenos Aires,Ensenada,Fuerte de Barragán,Av. Almirante Brown y Camino Regatas,-34.84580556,-57.92413889,Monumento Histórico,"Comisión Nacional de Monumentos, de Lugares y de Bienes Históricos (CNMLBH)",s/d,Nacional,21/5/1942,Decreto,120411,,,
9,6,6245010,Buenos Aires,Ensenada,Puente ferroviario giratorio,s/d,-34.84558333,-57.92197222,Monumento Histórico,"Comisión Nacional de Monumentos, de Lugares y de Bienes Históricos (CNMLBH)",s/d,Nacional,19/11/2014,Decreto,2183,,,
9,6,6245010,Buenos Aires,Ensenada,Puente ferroviario giratorio - área de amortiguación visual,s/d,-34.85830556,-57.89758333,Bien de interés histórico,"Comisión Nacional de Monumentos, de Lugares y de Bienes Históricos (CNMLBH)",s/d,Nacional,19/11/2014,Decreto,2183,,,
9,6,6270010,Buenos Aires,Ezeiza,"Hangares Nº 3 y 4 del Aeropuerto ""Ministro Pistarini""",Km 32 Autopista Ricchieri,-34.80263889,-58.53041667,Monumento Histórico,"Comisión Nacional de Monumentos, de Lugares y de Bienes Históricos (CNMLBH)",s/d,Nacional,21/10/2009,Decreto,1536,,,
9,6,6270010,Buenos Aires,Ezeiza,Hogar Escuela Evita,Autopistas Ricchieri y Jorge Newbery,-34.78486111,-58.52022222,Monumento Histórico,"Comisión Nacional de Monumentos, de Lugares y de Bienes Históricos (CNMLBH)",s/d,Nacional,3/11/2015,Decreto,2297,,,
9,6,6861010,Buenos Aires,Florida,Casa de la Memoria y la Resistencia Jorge “Nono” Lizaso,Avenida Mitre 1985,-34.53147222,-58.51316667,Lugar Histórico,"Comisión Nacional de Monumentos, de Lugares y de Bienes Históricos (CNMLBH)",s/d,Nacional,5/3/2015,Decreto,379,,,
9,6,6399030,Buenos Aires,Garré,Delegación Municipal,s/d,-36.56119444,-62.60444444,Bien de Interés Histórico y Artístico,"Comisión Nacional de Monumentos, de Lugares y de Bienes Históricos (CNMLBH)",s/d,Nacional,21/7/2014,Decreto,1138,,,
9,6,6056030,Buenos Aires,General Cerri,Fortín Cuatreros,"En los alrededores de la Ciudad de Bahía Blanca, cercano a la Ruta Nacional N°3",-38.71244444,-62.41191667,Monumento Histórico,"Comisión Nacional de Monumentos, de Lugares y de Bienes Históricos (CNMLBH)",s/d,Nacional,7/6/1944,Decreto,14119,,,
9,6,6371010,Buenos Aires,General San Martín,Antiguo Gasómetro,Av. Constituyentes y Gral. Paz,-34.57047222,-58.51116667,Bien de Interés Histórico,"Comisión Nacional de Monumentos, de Lugares y de Bienes Históricos (CNMLBH)",s/d,Nacional,21/10/2009,Decreto,1536,,,
9,6,6028010,Buenos Aires,Glew,Iglesia Santa Ana,Aristóbulo del Valle y Moreno,-34.89094444,-58.38477778,Bien de Interés Histórico,"Comisión Nacional de Monumentos, de Lugares y de Bienes Históricos (CNMLBH)",s/d,Nacional,7/12/1994,Ley,24413,,,
9,6,6441030,Buenos Aires,Gonnet,República de los Niños,s/d,-34.88791667,-58.02136111,Monumento Histórico,"Comisión Nacional de Monumentos, de Lugares y de Bienes Históricos (CNMLBH)",s/d,Nacional,28/11/2001,Ley,25550,,,
9,6,6399040,Buenos Aires,Guaminí,Comandancia de la Frontera Oeste,s/d,-37.01260833,-62.41846944,Lugar Histórico,"Comisión Nacional de Monumentos, de Lugares y de Bienes Históricos (CNMLBH)",s/d,Nacional,8/8/1983,Decreto,1983,,,
9,6,6399040,Buenos Aires,Guaminí,Conjunto integrado por la Plaza Alsina y el Palacio Municipal,s/d,-37.01086111,-62.42236111,Bien de Interés Histórico y Artístico,"Comisión Nacional de Monumentos, de Lugares y de Bienes Históricos (CNMLBH)",s/d,Nacional,21/7/2014,Decreto,1138,,,
9,6,6399040,Buenos Aires,Guaminí,Matadero Municipal,Boulevard Freyre y las vías del ferrocarril,-37.01858333,-62.41236111,Monumento Histórico,"Comisión Nacional de Monumentos, de Lugares y de Bienes Históricos (CNMLBH)",s/d,Nacional,21/7/2014,Decreto,1138,,,
9,6,6408010,Buenos Aires,Hurlingham,"Colegio E.P. Nº 2 ""Pablo A. Pizzurno""",Sargento Gómez Nº 1561/63,-34.58611111,-58.63463889,Bien de interés Histórico Nacional,"Comisión Nacional de Monumentos, de Lugares y de Bienes Históricos (CNMLBH)",s/d,Nacional,11/5/2015,Decreto,797,,,
9,6,6252010,Buenos Aires,Ingeniero Maschwitz,Casco de la Estancia Villanueva (Instituto Ntra. Señora de Fátima),s/d,-34.37833333,-58.74533333,Monumento Histórico,"Comisión Nacional de Monumentos, de Lugares y de Bienes Históricos (CNMLBH)",s/d,Nacional,30/11/2000,Ley,25376,,,
9,6,6441030,Buenos Aires,Isla Martín García,Antiguo faro de la Armada Argentina,Calle Rosales 058,-34.18530556,-58.25252778,Monumento Histórico,"Comisión Nacional de Monumentos, de Lugares y de Bienes Históricos (CNMLBH)",s/d,Nacional,31/10/2011,Decreto,1741,,,
9,6,6441030,Buenos Aires,Isla Martín García,Antiguo penal naval militar,s/d,-34.18805556,-58.25408333,Bien de interés histórico nacional,"Comisión Nacional de Monumentos, de Lugares y de Bienes Históricos (CNMLBH)",s/d,Nacional,31/10/2011,Decreto,1741,,,
9,6,6441030,Buenos Aires,Isla Martín García,Cementerio,s/d,-34.18238889,-58.25047222,Bien de interés histórico artístico nacional,"Comisión Nacional de Monumentos, de Lugares y de Bienes Históricos (CNMLBH)",s/d,Nacional,31/10/2011,Decreto,1741,,,
9,6,6441030,Buenos Aires,Isla Martín García,"Cine Teatro ""General Urquiza""",Espora 164,-34188,-58.25366667,Bien de interés histórico nacional,"Comisión Nacional de Monumentos, de Lugares y de Bienes Históricos (CNMLBH)",s/d,Nacional,31/10/2011,Decreto,1741,,,
9,6,6441030,Buenos Aires,Isla Martín García,Isla Martín García,s/d,-34188,-58.25366667,Lugar Histórico,"Comisión Nacional de Monumentos, de Lugares y de Bienes Históricos (CNMLBH)",s/d,Nacional,15/4/1958,Decreto,4718,,,
9,6,6427010,Buenos Aires,La Matanza,Chacra de los Tapiales,"Dentro del predio del Mercado Central, por Autopista Tte. Gral. Ricchieri",-34.71036111,-58.49894444,Monumento Histórico,"Comisión Nacional de Monumentos, de Lugares y de Bienes Históricos (CNMLBH)",s/d,Nacional,21/5/1942,Decreto,120411,,,
9,6,6427010,Buenos Aires,La Matanza,Ciudad Evita,s/d,-34.72605556,-58.52891667,Lugar Histórico,"Comisión Nacional de Monumentos, de Lugares y de Bienes Históricos (CNMLBH)",s/d,Nacional,24/10/1997,Decreto,1110,,,
9,6,6427010,Buenos Aires,La Matanza,Estancia del Virrey del Pino,"Ruta Nac. 3, a la altura del km. 40 y Calle Máximo Herrera",-34.85255556,-58.65775,Monumento Histórico,"Comisión Nacional de Monumentos, de Lugares y de Bienes Históricos (CNMLBH)",s/d,Nacional,21/5/1942,Decreto,120411,,,
9,6,6441030,Buenos Aires,La Plata,Casa Curutchet,"Avenida 53, entre 1 y 2",-34.91130556,-57.94197222,Monumento Histórico,"Comisión Nacional de Monumentos, de Lugares y de Bienes Históricos (CNMLBH)",s/d,Nacional,30/12/1987,Resolución SC,2335,,,
9,6,6441030,Buenos Aires,La Plata,Casa de Ricardo Balbín,Calle 49 844,-34.91863889,-57.95533333,Monumento Histórico,"Comisión Nacional de Monumentos, de Lugares y de Bienes Históricos (CNMLBH)",s/d,Nacional,12/11/1993,Decreto,2334,,,
9,6,6441030,Buenos Aires,La Plata,Casa Mariani - Teruggi,Calle 30 1134 entre 55 y 56,-34.93922222,-57.96952778,Monumento Histórico,"Comisión Nacional de Monumentos, de Lugares y de Bienes Históricos (CNMLBH)",s/d,Nacional,8/7/2004,Decreto,848,,,
9,6,6441030,Buenos Aires,La Plata,Casa que Habito Pedro B.Palacios (Almafuerte),Av 66 530/32,-34.92472222,-57.93308333,Monumento Histórico,"Comisión Nacional de Monumentos, de Lugares y de Bienes Históricos (CNMLBH)",s/d,Nacional,2/2/1961,Decreto,932,,,
9,6,6441030,Buenos Aires,La Plata,Casco urbano fundacional de la Ciudad de La Plata,s/d,-34.92144444,-57.95469444,Bien de Interés Histórico,"Comisión Nacional de Monumentos, de Lugares y de Bienes Históricos (CNMLBH)",s/d,Nacional,11/11/1999,Decreto,1308,,,
9,6,6441030,Buenos Aires,La Plata,Edificio lindero Casa Curutchet (Av. 53 Nº 318),Av. 53 318 entre 2 y 54,-34.91133333,-57.94169444,Monumento Histórico,"Comisión Nacional de Monumentos, de Lugares y de Bienes Históricos (CNMLBH)",s/d,Nacional,13/7/2006,Decreto,890,,,
9,6,6441030,Buenos Aires,La Plata,Edificio lindero Casa Curutchet (Av. 53 Nº 324),Av. 53 324 entre 2 y 54,-34.91138889,-57942,Monumento Histórico,"Comisión Nacional de Monumentos, de Lugares y de Bienes Históricos (CNMLBH)",s/d,Nacional,13/7/2006,Decreto,890,,,
9,6,6441030,Buenos Aires,La Plata,Florentino Ameghino,Cementerio de La Plata,-34.91133333,-57.94175,Sepulcro,"Comisión Nacional de Monumentos, de Lugares y de Bienes Históricos (CNMLBH)",s/d,Nacional,31/12/1980,Decreto,2755,,,
9,6,6441030,Buenos Aires,La Plata,Museo de Ciencias Naturales,Paseo del Bosque,-34.90911111,-57.93522222,Monumento Histórico,"Comisión Nacional de Monumentos, de Lugares y de Bienes Históricos (CNMLBH)",s/d,Nacional,24/10/1997,Decreto,1110,,,
9,6,6441030,Buenos Aires,La Plata,Teatro Coliseo Podestá,Calle 10 733,-34.91566667,-57.95575,Monumento Histórico,"Comisión Nacional de Monumentos, de Lugares y de Bienes Históricos (CNMLBH)",s/d,Nacional,21/6/2011,Decreto,837,,,
9,6,6441030,Buenos Aires,La Plata,Templo de San Francisco de Asis,Calle 12 1773,-34.93294444,-57.93725,Lugar Histórico,"Comisión Nacional de Monumentos, de Lugares y de Bienes Históricos (CNMLBH)",s/d,Nacional,12/10/2011,Decreto,1617,,,
9,6,6399050,Buenos Aires,Laguna Alsina,Delegación Municipal de Bonifacio,s/d,-36.80755556,-62.24727778,Bien de Interés Histórico y Artístico,"Comisión Nacional de Monumentos, de Lugares y de Bienes Históricos (CNMLBH)",s/d,Nacional,21/7/2014,Decreto,1138,,,
9,6,6434010,Buenos Aires,Lanús,"Coche Dinamométrico 0 - 153, propiedad del Estado Nacional y cedido en custodia al Ferroclub Argentino",Talleres Remedios de Escalada del Ferrocarril General Roca,-34.72991667,-58.39061111,Bien de Interés Histórico,"Comisión Nacional de Monumentos, de Lugares y de Bienes Históricos (CNMLBH)",s/d,Nacional,1/10/2008,Decreto,1576,,,
9,6,6434010,Buenos Aires,Lanús,"Coche Oficial 0 - 261, propiedad del Estado Nacional y cedido en custodia al Ferroclub Argentino",Talleres Remedios de Escalada del Ferrocarril General Roca,-34.72991667,-58.39061111,Bien de Interés Histórico,"Comisión Nacional de Monumentos, de Lugares y de Bienes Históricos (CNMLBH)",s/d,Nacional,1/10/2008,Decreto,1576,,,
9,6,6434010,Buenos Aires,Lanús,"Coche Reservado Familiar Clase R - 5, identificado como RF - 6505, propiedad del Estado Nacional y cedido en custodia al Ferroclub Argentino",Talleres Remedios de Escalada del Ferrocarril General Roca,-34.72991667,-58.39061111,Bien de Interés Histórico,"Comisión Nacional de Monumentos, de Lugares y de Bienes Históricos (CNMLBH)",s/d,Nacional,1/10/2008,Decreto,1576,,,
9,6,6434010,Buenos Aires,Lanús,"Coche Restaurante Clase K - 5, identificado como R - 6717, propiedad el Estado Argentino y cedido en custodia al Ferroclub Argentino.",Talleres Remedios de Escalada del Ferrocarril General Roca,-34.72991667,-58.39061111,Bien de Interés Histórico,"Comisión Nacional de Monumentos, de Lugares y de Bienes Históricos (CNMLBH)",s/d,Nacional,1/10/2008,Decreto,1576,,,
9,6,6434010,Buenos Aires,Lanús,"Edificio de la nave principal, también denominado ""Sección 43"", emplazado en el predio de los Talleres Remedios de Escalada del Ferrocarril Gral. Roca",Talleres Remedios de Escalada del Ferrocarril General Roca,-34.73163889,-58.39333333,Bien de Interés Histórico,"Comisión Nacional de Monumentos, de Lugares y de Bienes Históricos (CNMLBH)",s/d,Nacional,1/10/2008,Decreto,1576,,,
9,6,6434010,Buenos Aires,Lanús,"Locomotora a Vapor Clase 11 B, identificada con el número 4116, propiedad del Estado Nacional y cedida en custodia al Ferroclub Argentino.",Talleres Remedios de Escalada del Ferrocarril General Roca,-34.72991667,-58.39061111,Bien de Interés Histórico,"Comisión Nacional de Monumentos, de Lugares y de Bienes Históricos (CNMLBH)",s/d,Nacional,1/10/2008,Decreto,1576,,,
9,6,6434010,Buenos Aires,Lanús,"Locomotora Diesel Baldwin número 5037, propiedad del Estado Nacional y cedida en custodia al Ferroclub Argentino.",Talleres Remedios de Escalada del Ferrocarril General Roca,-34.72991667,-58.39061111,Bien de Interés Histórico,"Comisión Nacional de Monumentos, de Lugares y de Bienes Históricos (CNMLBH)",s/d,Nacional,1/10/2008,Decreto,1576,,,
9,6,6448010,Buenos Aires,Laprida,Conjunto integrado por la Plaza Pedro Pereyra y el Palacio Municipal,s/d,-37.54402778,-60.80097222,Bien de Interés Histórico y Artístico,"Comisión Nacional de Monumentos, de Lugares y de Bienes Históricos (CNMLBH)",s/d,Nacional,21/7/2014,Decreto,1138,,,
9,6,6448010,Buenos Aires,Laprida,Matadero Municipal,Avenida San Martín y Circunvalación,-37.30816667,-59.99883333,Bien de interés histórico,"Comisión Nacional de Monumentos, de Lugares y de Bienes Históricos (CNMLBH)",s/d,Nacional,21/7/2014,Decreto,1138,,,
9,6,6448010,Buenos Aires,Laprida,Portal del Cementerio,s/d,-37.56313889,-60.83069444,Bien de Interés Histórico y Artístico,"Comisión Nacional de Monumentos, de Lugares y de Bienes Históricos (CNMLBH)",s/d,Nacional,21/7/2014,Decreto,1138,,,
9,6,6483040,Buenos Aires,Lobos,Casa natal del Presidente de la Nación Juan Domingo Perón,Presidente Juan Domingo Perón 1380,-35.19044444,-59.09705556,Monumento Histórico,"Comisión Nacional de Monumentos, de Lugares y de Bienes Históricos (CNMLBH)",s/d,Nacional,21/12/2001,Ley,25518,,,
9,6,6483040,Buenos Aires,Lobos,Club Social (antigua sede de la Sociedad Orfeón Lobense),Salgado s/n y Pte. Juan Domingo Perón,-35.18594444,-59.09747222,Monumento Histórico,"Comisión Nacional de Monumentos, de Lugares y de Bienes Históricos (CNMLBH)",s/d,Nacional,10/8/2004,Decreto,1020,,,
9,6,6483040,Buenos Aires,Lobos,Iglesia Parroquial de Nuestra Señora del Carmen,Salgado esquina Presbítero Albertini (ex Arenalez),-35.18588889,-59.09825,Monumento Histórico,"Comisión Nacional de Monumentos, de Lugares y de Bienes Históricos (CNMLBH)",s/d,Nacional,10/8/2004,Decreto,1020,,,
9,6,6483040,Buenos Aires,Lobos,Palacio Municipal,Salgado entre Presbítero Albertini y Pte. Juan Domingo Perón,-35.18588889,-59.09783333,Monumento Histórico,"Comisión Nacional de Monumentos, de Lugares y de Bienes Históricos (CNMLBH)",s/d,Nacional,10/8/2004,Decreto,1020,,,
9,6,6483040,Buenos Aires,Lobos,"Plaza ""1810""","Entre las calles Buenos Aires, Salgado, Belgrano y 25 de Mayo",-35.18538889,-59.09783333,Lugar Histórico,"Comisión Nacional de Monumentos, de Lugares y de Bienes Históricos (CNMLBH)",s/d,Nacional,10/8/2004,Decreto,1020,,,
9,6,6490010,Buenos Aires,Lomas de Zamora,"Conjunto formado por la Iglesia Catedral y Basílica de Nuestra Señora de la Paz, la sede Parroquial (ex Instituto ""Presbítero Dr. Antonio Sáenz"") y la casa Parroquial",Respectivamente: Sáenz s/n, Sáenz s/n esquina Hipólito Yrigoyen, Sáenz 438,-34.75813889,-58.40258333,Monumento Histórico,"Comisión Nacional de Monumentos, de Lugares y de Bienes Históricos (CNMLBH)",s/d,Nacional,10/8/2004,Decreto,1020,
9,6,6490010,Buenos Aires,Lomas de Zamora,Escuela de Agronomía y Veterinaria en Sta. Catalina,Paraje Santa Catalina,-34.78038889,-58.43672222,Lugar Histórico,"Comisión Nacional de Monumentos, de Lugares y de Bienes Históricos (CNMLBH)",s/d,Nacional,1/2/1961,Decreto,877,,,
9,6,6490010,Buenos Aires,Lomas de Zamora,"Escuela N° 1 ""Bartolomé Mitre"" (ex escuela común N° 1)",Sáenz 450 esquina Manuel Castro,-34.75788889,-58.40311111,Monumento Histórico,"Comisión Nacional de Monumentos, de Lugares y de Bienes Históricos (CNMLBH)",s/d,Nacional,10/8/2004,Decreto,1020,,,
9,6,6490010,Buenos Aires,Lomas de Zamora,Monumento ecuestre al Gral. San Martín,"Plaza ""Victorio Grigera""",-34.75725,-58.40275,Bien de Interés Histórico Artístico,"Comisión Nacional de Monumentos, de Lugares y de Bienes Históricos (CNMLBH)",s/d,Nacional,10/8/2004,Decreto,1020,,,
9,6,6490010,Buenos Aires,Lomas de Zamora,Museo Americanista,Manuel Castro 252/254,-34.75713889,-58.40366667,Monumento Histórico,"Comisión Nacional de Monumentos, de Lugares y de Bienes Históricos (CNMLBH)",s/d,Nacional,13/3/2007,Decreto,216,,,
9,6,6490010,Buenos Aires,Lomas de Zamora,Palacio Municipal,Manuel Castro 220,-34.75747222,-58.40391667,Monumento Histórico,"Comisión Nacional de Monumentos, de Lugares y de Bienes Históricos (CNMLBH)",s/d,Nacional,10/8/2004,Decreto,1020,,,
9,6,6490010,Buenos Aires,Lomas de Zamora,"Plaza ""Victorio Grigera""","Entre la Av. Hipólito Yrigoyen y las calles Sáenz, Manuel Castro y Portela",-34.75725,-58.40275,Lugar Histórico,"Comisión Nacional de Monumentos, de Lugares y de Bienes Históricos (CNMLBH)",s/d,Nacional,10/8/2004,Decreto,1020,,,
9,6,6490010,Buenos Aires,Lomas de Zamora,"Sector del trazado urbano comprendido entre las calles Azara, Portela, Rivera, Manuel Castro, Portela, Av. H. Yrigoyen, Boedo y Manuel Castro.","Calles Azara, Portela, Rivera, Manuel Castro, Portela, Av. H. Yrigoyen, Boedo y Manuel Castro",-34.75777778,-58.40355556,Bien de Interés Histórico,"Comisión Nacional de Monumentos, de Lugares y de Bienes Históricos (CNMLBH)",s/d,Nacional,13/3/2007,Decreto,216,,,
9,6,6490010,Buenos Aires,Lomas de Zamora,"Sociedad de Educación y Biblioteca Popular ""Antonio Mentruyt""",Italia Nº 44,-34.76105556,-58.40127778,Monumento Histórico,"Comisión Nacional de Monumentos, de Lugares y de Bienes Históricos (CNMLBH)",s/d,Nacional,2/10/2008,Decreto,1592,,,
9,6,6063020,Buenos Aires,Los Pinos,Delegación Municipal,Calle principal sin número frente a la plaza principal,-37.94302778,-58.32488889,Bien de Interés Histórico y Artístico,"Comisión Nacional de Monumentos, de Lugares y de Bienes Históricos (CNMLBH)",s/d,Nacional,21/7/2014,Decreto,1138,,,
9,6,6385030,Buenos Aires,"Los Toldos, General Viamonte",Casa donde pasara parte de su infancia María Eva Duarte de Perón,Francia S/N,-34.99786111,-61.03763889,Monumento Histórico,"Comisión Nacional de Monumentos, de Lugares y de Bienes Históricos (CNMLBH)",s/d,Nacional,1/8/2002,Ley,25631,,,
9,6,6497060,Buenos Aires,Luján,Basílica de Luján. Santuario del Arzobispado de Mercedes-Luján,"9 de Julio, B Mitre, Pdre. JM Salvaire y San Martín",-34.5645,-59.12177778,Monumento Histórico,"Comisión Nacional de Monumentos, de Lugares y de Bienes Históricos (CNMLBH)",s/d,Nacional,12/3/1998,Decreto,283,,,
9,6,6497060,Buenos Aires,Luján,Cabildo de la ciudad de Lujan,Torrezuri 917 (y Lezica),-34.56275,-59.12172222,Monumento Histórico,"Comisión Nacional de Monumentos, de Lugares y de Bienes Históricos (CNMLBH)",s/d,Nacional,21/5/1942,Decreto,120411,,,
9,6,6497060,Buenos Aires,Luján,Casa de los Ameghino,Las Heras 466,-34.56775,-59.11691667,Monumento Histórico,"Comisión Nacional de Monumentos, de Lugares y de Bienes Históricos (CNMLBH)",s/d,Nacional,15/5/2007,Decreto,513,,,
9,6,6497060,Buenos Aires,Luján,Casa de Pepa Galarza,Lezica de Torrezuri 881,-34.56211111,-59.1215,Monumento Histórico,"Comisión Nacional de Monumentos, de Lugares y de Bienes Históricos (CNMLBH)",s/d,Nacional,15/5/2007,Decreto,513,,,
9,6,6497060,Buenos Aires,Luján,Casa del Virrey Sobremonte,Lezica y Torrezuri 917,-34.56275,-59.12172222,Monumento Histórico,"Comisión Nacional de Monumentos, de Lugares y de Bienes Históricos (CNMLBH)",s/d,Nacional,21/5/1942,Decreto,120411,,,
9,6,6497060,Buenos Aires,Luján,"Columna en homenaje al Gral. Manuel Belgrano emplazada en el Complejo Museográfico ""Enrique Udaondo""",s/d,-34.56269444,-59.12175,Bien de Interés Histórico Artístico,"Comisión Nacional de Monumentos, de Lugares y de Bienes Históricos (CNMLBH)",s/d,Nacional,15/5/2007,Decreto,513,,,
9,6,6497060,Buenos Aires,Luján,"Molino de viento y tahona emplazados en el área II del Complejo Museográfico ""Enrique Udaondo""","Manzana delimitada por las calles Lavalle, Lezica de Torrezuri, 25 de Mayo y Av. Ntra. Sra. de Luján",-34.56163889,-59.12141667,Bien de Interés Histórico,"Comisión Nacional de Monumentos, de Lugares y de Bienes Históricos (CNMLBH)",s/d,Nacional,15/5/2007,Decreto,513,,,
9,6,6497060,Buenos Aires,Luján,Paraje donde se inicio la veneración de V.de Lujan,"Estancia de Rosendo, a 4Km al Noroeste de la estación ferroviaria de Villa Rosa y a 3 Km al Este del río Luján",-34.3855,-58.89422222,Lugar Histórico,"Comisión Nacional de Monumentos, de Lugares y de Bienes Históricos (CNMLBH)",s/d,Nacional,9/3/1989,Decreto,325,,,
9,6,6497060,Buenos Aires,Luján,"Solar de la casa que habitaron Carlos, Juán  y Florentino Ameghino - Museo Municipal Ameghino de Ciencias Naturales",Las Heras 466,-34.56775,-59.11691667,Lugar Histórico,"Comisión Nacional de Monumentos, de Lugares y de Bienes Históricos (CNMLBH)",s/d,Nacional,4/6/1982,Decreto,1118,,,
9,6,6497060,Buenos Aires,Luján - Carlos Keen,Zona de preservación de la localidad de Carlos Keen (en su calidad de poblado histórico),s/d,-34.48608333,-59.21938889,Bien de Interés Histórico,"Comisión Nacional de Monumentos, de Lugares y de Bienes Históricos (CNMLBH)",s/d,Nacional,15/5/2007,Decreto,513,,,
9,6,6505040,Buenos Aires,Magdalena,Sociedad Española de Socorros Mutuos y Teatro Español,Goenaga 835,-35.0795,-57.51791667,Bien de interés histórico-artístico,"Comisión Nacional de Monumentos, de Lugares y de Bienes Históricos (CNMLBH)",s/d,Nacional,21/6/2011,Decreto,837,,,
9,6,6357110,Buenos Aires,Mar del Plata,Capilla de Santa Cecilia,Calle Córdoba entre 3 de Febrero y 9 de Julio,-37.99636111,-57.54427778,Monumento Histórico,"Comisión Nacional de Monumentos, de Lugares y de Bienes Históricos (CNMLBH)",s/d,Nacional,30/4/1971,Decreto,793,,,
9,6,6357110,Buenos Aires,Mar del Plata,Capilla del Instituto Saturnino Unzué,Jujuy 77,-37.98191667,-57.5445,Monumento Histórico,"Comisión Nacional de Monumentos, de Lugares y de Bienes Históricos (CNMLBH)",s/d,Nacional,9/3/1989,Decreto,325,,,
9,6,6357110,Buenos Aires,Mar del Plata,Casa del Puente,"Calles Matheu, Funes, Saavedra y las vías del FFCC Gral. Roca",-38.00875,-57.57372222,Monumento Histórico Artístico,"Comisión Nacional de Monumentos, de Lugares y de Bienes Históricos (CNMLBH)",s/d,Nacional,20/3/1997,Decreto,262,,,
9,6,6357110,Buenos Aires,Mar del Plata,"Chalet “Ave María”, residencia veraniega del músico popular Mariano Mores",Alem 2469/99 y Gascón229,-38.01772222,-57.52822222,Bien de interés histórico,"Comisión Nacional de Monumentos, de Lugares y de Bienes Históricos (CNMLBH)",s/d,Nacional,29/4/2015,Decreto,714,,,
9,6,6357110,Buenos Aires,Mar del Plata,ex Cine Teatro Opera,Independencia 1641,-37.99588889,-57.55288889,Bien de interés histórico-artístico,"Comisión Nacional de Monumentos, de Lugares y de Bienes Históricos (CNMLBH)",s/d,Nacional,21/6/2011,Decreto,837,,,
9,6,6357110,Buenos Aires,Mar del Plata,"Hotel Provincial y Casino, la Rambla, las Recovas, la Plaza seca y la Plaza Colón",s/d,-38.00544444,-57.54247222,Conjunto Urbano Arquitectónico,"Comisión Nacional de Monumentos, de Lugares y de Bienes Históricos (CNMLBH)",s/d,Nacional,15/4/1999,Decreto,349,,,
9,6,6357110,Buenos Aires,Mar del Plata,Instituto Saturnino Enrique Unzué,s/d,-37.98191667,-57.5445,Monumento Histórico,"Comisión Nacional de Monumentos, de Lugares y de Bienes Históricos (CNMLBH)",s/d,Nacional,16/5/1997,Decreto,437,,,
9,6,6357110,Buenos Aires,Mar del Plata,"Predio ubicado sobre el Paseo Costanero ‘Arturo Illia’, Punta Mogotes, coincidente con la ruta provincial N° 11, que une la ciudad de Mar del Plata con la ciudad de Miramar",s/d,-38.08179444,-57.53927778,Lugar Histórico,"Comisión Nacional de Monumentos, de Lugares y de Bienes Históricos (CNMLBH)",s/d,Nacional,25/3/2015,Ley,27127,,,
9,6,6357110,Buenos Aires,Mar del Plata,Teatro Colón y Club Español,"H. Yrigoyen 1652, 57, 65 y 77",-38.01316667,-57.53519444,Bien de interés histórico-artístico,"Comisión Nacional de Monumentos, de Lugares y de Bienes Históricos (CNMLBH)",s/d,Nacional,21/6/2011,Decreto,837,,,
9,6,6357110,Buenos Aires,Mar del Plata,Torre Tanque ornamental,Falucho 993,-38.01316667,-57.53519444,Monumento Histórico,"Comisión Nacional de Monumentos, de Lugares y de Bienes Históricos (CNMLBH)",s/d,Nacional,9/12/2013,Decreto,2109,,,
9,6,6756010,Buenos Aires,Martínez - San Isidro,"Iglesia Parroquial Nuestra Señora de Fátima, casa parroquial y Teatro de la Cova",Av. Del Libertador 13900,-34.48361111,-58.49,Monumento Histórico,"Comisión Nacional de Monumentos, de Lugares y de Bienes Históricos (CNMLBH)",s/d,Nacional,14/6/2007,Decreto,740,,,
9,6,6532020,Buenos Aires,Mercedes,"Catedral Basílica ""Nuestra Señora de las Mercedes"", su cripta y la casa parroquial","Calle Nº 24, entre las calles Nºs. 27, 29 y 22 Nº 674",-34.65133333,-59.43152778,Monumento Histórico,"Comisión Nacional de Monumentos, de Lugares y de Bienes Históricos (CNMLBH)",s/d,Nacional,15/4/2010,Decreto,492,,,
9,6,6672010,Buenos Aires,Miranda,Delegación Municipal,Paseo Miranda 7201,-36.53325,-59.13430556,Bien de Interés Histórico y Artístico,"Comisión Nacional de Monumentos, de Lugares y de Bienes Históricos (CNMLBH)",s/d,Nacional,21/7/2014,Decreto,1138,,,
9,6,6560010,Buenos Aires,Moreno,Casa de Amancio Alcorta,Coleta Palacios 1992,-34.65638889,-58.78027778,Monumento Histórico,"Comisión Nacional de Monumentos, de Lugares y de Bienes Históricos (CNMLBH)",s/d,Nacional,31/12/1969,Decreto,8505,,,
9,6,6560010,Buenos Aires,Moreno,Puente de Marquez (sobre el Río Las Conchas),s/d,-34.62786111,-58.72469444,Lugar Histórico,"Comisión Nacional de Monumentos, de Lugares y de Bienes Históricos (CNMLBH)",s/d,Nacional,18/11/1964,Decreto,9292,,,
9,6,6568010,Buenos Aires,Morón,Aeronave Pulqui I,Museo Nacional de Aeronáutica,-34.67597222,-58.63769444,Bien de interés histórico nacional,"Comisión Nacional de Monumentos, de Lugares y de Bienes Históricos (CNMLBH)",s/d,Nacional,20/5/2015,Decreto,899,,,
9,6,6568010,Buenos Aires,Morón,Aeronave Pulqui II,Museo Nacional de Aeronáutica,-34.67597222,-58.63769444,Bien de interés histórico nacional,"Comisión Nacional de Monumentos, de Lugares y de Bienes Históricos (CNMLBH)",s/d,Nacional,20/5/2015,Decreto,899,,,
9,6,6568010,Buenos Aires,Morón,Campo de Caseros,s/d,-34.60333056,-58.61157222,Lugar Histórico,"Comisión Nacional de Monumentos, de Lugares y de Bienes Históricos (CNMLBH)",s/d,Nacional,21/5/1942,Decreto,120411,,,
9,6,6568010,Buenos Aires,Morón,"Casa de Caseros, en el Palomar",s/d,-34.59997222,-58.60033333,Monumento Histórico,"Comisión Nacional de Monumentos, de Lugares y de Bienes Históricos (CNMLBH)",s/d,Nacional,26/7/1983,Decreto,1868,,,
9,6,6568010,Buenos Aires,Morón,Ombú (árbol) en el Campo de Caseros,En terrenos del Colegio Militar de la Nación,-34.60333056,-58.61157222,Árbol Histórico,"Comisión Nacional de Monumentos, de Lugares y de Bienes Históricos (CNMLBH)",s/d,Nacional,30/1/1946,Decreto,3038,,,
9,6,6568010,Buenos Aires,Morón,Palomar de Caseros,s/d,-34.60161111,-58.59858333,Monumento Histórico,"Comisión Nacional de Monumentos, de Lugares y de Bienes Históricos (CNMLBH)",s/d,Nacional,21/5/1942,Decreto,120411,,,
9,6,6861010,Buenos Aires,Munro,Museo del Cine Lumiton,s/d,-34528,-58.51597222,Bien de Interés Histórico,"Comisión Nacional de Monumentos, de Lugares y de Bienes Históricos (CNMLBH)",s/d,Nacional,20/9/2010,Ley,26634,,,
9,6,6574030,Buenos Aires,Navarro,Sitio donde se llevó a cabo el fusilamiento del Coronel Manuel Críspulo Dorrego,Sargento Cabral 2354,-35.00481667,-59.27434444,Lugar Histórico,"Comisión Nacional de Monumentos, de Lugares y de Bienes Históricos (CNMLBH)","Sitio donde fuera fusilado el insigne patriota de nuestra historia nacional, Coronel Manuel Dorrego, el 13 de diciembre de 1828.",Nacional,3/9/2003,Decreto,709,,,
9,6,6861010,Buenos Aires,Olivos,Quinta Presidencial de Olivos (Casa principal),"Villate, Av. Maipú, Malaver y vías del FFCC Mitre",-34.51494444,-58.48288889,Lugar Histórico,"Comisión Nacional de Monumentos, de Lugares y de Bienes Históricos (CNMLBH)",s/d,Nacional,15/11/2013,Decreto,1842,,,
9,6,6616030,Buenos Aires,Pellegrini,Conjunto integrado por la Plaza General José de San Martín y el Palacio Municipal,s/d,-36.26777778,-63.1645,Bien de Interés Histórico y Artístico,"Comisión Nacional de Monumentos, de Lugares y de Bienes Históricos (CNMLBH)",s/d,Nacional,21/7/2014,Decreto,1138,,,
9,6,6623100,Buenos Aires,Pergamino,"Reducto Fortificado en la Estación Experimental Agropecuaria INTA. ""Fortín Pergamino""","Adyacencias de la Estancia ""El Talar""",-33.93719444,-60.56716667,Monumento Histórico,"Comisión Nacional de Monumentos, de Lugares y de Bienes Históricos (CNMLBH)",s/d,Nacional,22/9/1967,Decreto,6975,,,
9,6,6638040,Buenos Aires,Pilar,Iglesia Nuestra Señora del Pilar,"Ruta a Salao, a 4 km de Pergamino, en terrenos que ocupa la Estación Experimental Agropecuaria INTA",-33.94588889,-60.56247222,Monumento Histórico,"Comisión Nacional de Monumentos, de Lugares y de Bienes Históricos (CNMLBH)",s/d,Nacional,7/12/1994,Ley,24412,,,
9,6,6638040,Buenos Aires,Pilar,Plaza del Pilar,Lorenzo López entre Rivadavia y Belgrano,-34.45875,-58.91388889,Lugar Histórico,"Comisión Nacional de Monumentos, de Lugares y de Bienes Históricos (CNMLBH)",s/d,Nacional,21/5/1942,Decreto,120411,,,
9,6,6651080,Buenos Aires,Puan,Cementerio Militar,"Dentro de la manzana comprendida entre las calles Dr. Victoriano de Orturzar, Belgrano, calle ""sin nombre"" y calle Proyectado, en la quinta N° 96",-37.5485,-62.77475,Lugar Histórico,"Comisión Nacional de Monumentos, de Lugares y de Bienes Históricos (CNMLBH)",s/d,Nacional,4/11/1968,Decreto,6930,,,
9,6,6245010,Buenos Aires,Punta Lara,Club Universitario de La Plata - Sede Náutica,Almte. Brown y Col. 201,-34.81530556,-57.9755,Bien de Interés Arquitectónico Nacional,"Comisión Nacional de Monumentos, de Lugares y de Bienes Históricos (CNMLBH)",s/d,Nacional,20/10/2015,Decreto,2216,,,
9,6,6658010,Buenos Aires,Quilmes,Club Pejerrey,s/d,-34.71013889,-58223,Bien de Interés Histórico,"Comisión Nacional de Monumentos, de Lugares y de Bienes Históricos (CNMLBH)",s/d,Nacional,22/7/2014,Decreto,1163,,,
9,6,6658010,Buenos Aires,Quilmes,Iglesia Parroquial de la Inmaculada Concepción,s/d,-34.72061111,-58.25427778,Lugar Histórico,"Comisión Nacional de Monumentos, de Lugares y de Bienes Históricos (CNMLBH)",s/d,Nacional,21/12/1970,Decreto,2884,,,
9,6,6658010,Buenos Aires,Quilmes,Playa de Quilmes,Solar de la actual iglesia Parroquial,-34.72061111,-58.25427778,Lugar Histórico,"Comisión Nacional de Monumentos, de Lugares y de Bienes Históricos (CNMLBH)",s/d,Nacional,21/5/1942,Decreto,120411,,,
9,6,6672010,Buenos Aires,Rauch,Conjunto integrado por el Palacio Municipal y la Plazoleta de la Municipalidad,s/d,-36.77519444,-59.08669444,Monumento Histórico,"Comisión Nacional de Monumentos, de Lugares y de Bienes Históricos (CNMLBH)",s/d,Nacional,21/7/2014,Decreto,1138,,,
9,6,6693020,Buenos Aires,Roque Pérez,Casa en la que vivió el Tte.Gral. Juan Domingo Perón,s/d,-35.40333333,-59.32402778,Lugar Histórico,"Comisión Nacional de Monumentos, de Lugares y de Bienes Históricos (CNMLBH)",s/d,Nacional,1/7/1998,Ley,25004,,,
9,6,6700070,Buenos Aires,Saavedra,Combate de Pigüe,B. Mitre e/Azcazubi y Pbtro. Massobrio,-37.79905556,-62.39238889,Lugar Histórico,"Comisión Nacional de Monumentos, de Lugares y de Bienes Históricos (CNMLBH)",s/d,Nacional,10/12/1945,Decreto,30825,,,
9,6,6700070,Buenos Aires,Saavedra,"Primera Conscripción Argentina, en Cura Malal",s/d,-37.7045,-62.20483333,Lugar Histórico,"Comisión Nacional de Monumentos, de Lugares y de Bienes Históricos (CNMLBH)",s/d,Nacional,1/3/1951,Decreto,4314,,,
9,6,6819020,Buenos Aires,Saldungaray,Conjunto integrado por la Plaza Independencia y la Delegacion Municipal,s/d,-38.20527778,-61.76963889,Bien de Interés Histórico y Artístico,"Comisión Nacional de Monumentos, de Lugares y de Bienes Históricos (CNMLBH)",s/d,Nacional,21/7/2014,Decreto,1138,,,
9,6,6819020,Buenos Aires,Saldungaray,Matadero Municipal,s/d,-38.18530556,-61.77486111,Bien de Interés Histórico y Artístico,"Comisión Nacional de Monumentos, de Lugares y de Bienes Históricos (CNMLBH)",s/d,Nacional,21/7/2014,Decreto,1138,,,
9,6,6819020,Buenos Aires,Saldungaray,Portal del Cementerio,Avenida Corrales y la calle Rincón,-38.20161111,-61.75858333,Monumento Histórico,"Comisión Nacional de Monumentos, de Lugares y de Bienes Históricos (CNMLBH)",s/d,Nacional,21/7/2014,Decreto,1138,,,
9,6,6721020,Buenos Aires,Salliquelo,Matadero Municipal,Juan José Moreda s/n,-36.75394444,-62.95097222,Monumento Histórico,"Comisión Nacional de Monumentos, de Lugares y de Bienes Históricos (CNMLBH)",s/d,Nacional,21/7/2014,Decreto,1138,,,
9,6,6714060,Buenos Aires,Salto,Fortín de la Guardia del Salto,s/d,-34.30038889,-60.28102778,Lugar Histórico,"Comisión Nacional de Monumentos, de Lugares y de Bienes Históricos (CNMLBH)",s/d,Nacional,10/8/1981,Decreto,960,,,
9,6,6063050,Buenos Aires,San Agustín,Delegación Municipal,Calle Hernández entre las calles Sagrada Familia y Martínez,-38.01105556,-58.35541667,Bien de Interés Histórico y Artístico,"Comisión Nacional de Monumentos, de Lugares y de Bienes Históricos (CNMLBH)",s/d,Nacional,21/7/2014,Decreto,1138,,,
9,6,6371010,Buenos Aires,San Andrés,Casa de Rosas,Calle 72 Diego Pombo 3324,-34.56616667,-58.5445,Lugar Histórico,"Comisión Nacional de Monumentos, de Lugares y de Bienes Históricos (CNMLBH)",s/d,Nacional,20/5/1998,Ley,24965,,,
9,6,6735020,Buenos Aires,San Antonio de Areco,Casa de la Intendencia Municipal de San Antonio de Areco,"Lavalle 363, esquina Alsina",-34.24294444,-59.47419444,Monumento Histórico,"Comisión Nacional de Monumentos, de Lugares y de Bienes Históricos (CNMLBH)",s/d,Nacional,10/11/1999,Decreto,1305,,,
9,6,6735020,Buenos Aires,San Antonio de Areco,"Casco de la Estancia ""La Porteña""",s/d,-34.24961111,-59.40052778,Monumento Histórico,"Comisión Nacional de Monumentos, de Lugares y de Bienes Históricos (CNMLBH)",s/d,Nacional,10/11/1999,Decreto,1305,,,
9,6,6735020,Buenos Aires,San Antonio de Areco,El Puente Viejo,"Sobre el Río Areco, continuación calle Moreno de la ciudad y el Camino Ricardo Güiraldes",-34.24033333,-59.47775,Monumento Histórico,"Comisión Nacional de Monumentos, de Lugares y de Bienes Históricos (CNMLBH)",s/d,Nacional,10/11/1999,Decreto,1305,,,
9,6,6735020,Buenos Aires,San Antonio de Areco,"Parque criollo Ricardo Güiraldes (Museo Gauchesco y la Pulpería ""La Blanqueada"")",s/d,-34.23763889,-59.48163889,Monumento Histórico,"Comisión Nacional de Monumentos, de Lugares y de Bienes Históricos (CNMLBH)",s/d,Nacional,10/11/1999,Decreto,1305,,,
9,6,6735020,Buenos Aires,San Antonio de Areco,Sector del casco urbano de San Antonio de Areco y Estación del Ferrocarril Nuevo Central Argentino,s/d,-34.25627778,-59.48116667,Bien de Interés Histórico,"Comisión Nacional de Monumentos, de Lugares y de Bienes Históricos (CNMLBH)",s/d,Nacional,10/11/1999,Decreto,1305,,,
9,6,6735020,Buenos Aires,San Antonio de Areco,Sepultura de Ricardo Güiraldes,Cementerio de San Antonio de Areco,-34.26377778,-59.45777778,Sepulcro,"Comisión Nacional de Monumentos, de Lugares y de Bienes Históricos (CNMLBH)",s/d,Nacional,12/2/2014,Decreto,186,,,
9,6,6735020,Buenos Aires,San Antonio de Areco,Templo Parroquial de San Antonio de Padua,"Bartolomé Mitre 366, entre Alsina y Arellano",-34.24447222,-59.4735,Monumento Histórico,"Comisión Nacional de Monumentos, de Lugares y de Bienes Históricos (CNMLBH)",s/d,Nacional,10/11/1999,Decreto,1305,,,
9,6,6749010,Buenos Aires,San Fernando,Adolfo Saldías,Cementerio San Fernando,-34.45730556,-58.55163889,Sepulcro,"Comisión Nacional de Monumentos, de Lugares y de Bienes Históricos (CNMLBH)",s/d,Nacional,13/2/1973,Decreto,1220,,,
9,6,6749010,Buenos Aires,San Fernando,Plaza Mitre,s/d,-34.44063889,-58.55813889,Lugar Histórico,"Comisión Nacional de Monumentos, de Lugares y de Bienes Históricos (CNMLBH)",s/d,Nacional,21/7/1983,Decreto,1840,,,
9,6,6749010,Buenos Aires,San Fernando,"Quinta ""El Ombú""",Avenida del Libertador y Calle General Pinto,-34.43658333,-58.55902778,Lugar Histórico,"Comisión Nacional de Monumentos, de Lugares y de Bienes Históricos (CNMLBH)",s/d,Nacional,12/11/1970,Decreto,2284,,,
9,6,6756010,Buenos Aires,San Isidro,Algarrobo (árbol) en las Barrancas de San Isidro,s/d,-34.47025,-58.50338889,Árbol Histórico,"Comisión Nacional de Monumentos, de Lugares y de Bienes Históricos (CNMLBH)",s/d,Nacional,4/7/1946,Decreto,2232,,,
9,6,6756010,Buenos Aires,San Isidro,"Casa del Gral. Juan M. de Pueyrredón (""Quinta Pueyrredón"") (sede del Museo Municipal “Brigadier General Juan Martín de Pueyrredón)",Rivera Indarte 48 y Roque Saenz Peña,-34.47011111,-58.50330556,Monumento Histórico,"Comisión Nacional de Monumentos, de Lugares y de Bienes Históricos (CNMLBH)",s/d,Nacional,28/10/1941,Decreto,104180,,,
9,6,6756010,Buenos Aires,San Isidro,Catedral de la Ciudad de San Isidro (solar),"Av. Del Libertador Gral. San Martín, esq. 9 de Julio",-34.46716667,-58.50936111,Lugar Histórico,"Comisión Nacional de Monumentos, de Lugares y de Bienes Históricos (CNMLBH)",s/d,Nacional,10/10/1963,Decreto,9226,,,
9,6,6756010,Buenos Aires,San Isidro,"Paseo ""Tres Ombúes""",s/d,-34.46730556,-58.50666667,Lugar Histórico,"Comisión Nacional de Monumentos, de Lugares y de Bienes Históricos (CNMLBH)",s/d,Nacional,10/10/1963,Decreto,9226,,,
9,6,6756010,Buenos Aires,San Isidro,"Plaza ""Mitre""",s/d,-34.46611111,-58.5095,Lugar Histórico,"Comisión Nacional de Monumentos, de Lugares y de Bienes Históricos (CNMLBH)",s/d,Nacional,10/10/1963,Decreto,9226,,,
9,6,6756010,Buenos Aires,San Isidro,Quinta Los Naranjos,s/d,-34.46755556,-58507,Bien de Interés Histórico,"Comisión Nacional de Monumentos, de Lugares y de Bienes Históricos (CNMLBH)",s/d,Nacional,2/10/2007,Decreto,1284,,,
9,6,6756010,Buenos Aires,San Isidro,Quinta Los Ombúes,s/d,-34.46722222,-58.50711111,Monumento Histórico,"Comisión Nacional de Monumentos, de Lugares y de Bienes Históricos (CNMLBH)",s/d,Nacional,2/10/2007,Decreto,1284,,,
9,6,6756010,Buenos Aires,San Isidro,Residencia de Victoria Ocampo conocida como Villa Ocampo,Elortondo 1811/37,-34.45808333,-58.51844444,Monumento Histórico,"Comisión Nacional de Monumentos, de Lugares y de Bienes Históricos (CNMLBH)",s/d,Nacional,16/5/1997,Decreto,437,,,
9,6,6756010,Buenos Aires,San Isidro,Sitio partida Expedición de los 33 Orientales,33 orientales y Av. Bartolomé Mitre,-34.4505,-58.51663889,Lugar Histórico,"Comisión Nacional de Monumentos, de Lugares y de Bienes Históricos (CNMLBH)",s/d,Nacional,20/8/1943,Decreto,6115,,,
9,6,6371010,Buenos Aires,San Martín,"Casa Natal de José Hernández, Chacra Pueyrredón",Carballo 5042,-34.56208333,-58.57258333,Monumento Histórico,"Comisión Nacional de Monumentos, de Lugares y de Bienes Históricos (CNMLBH)",s/d,Nacional,13/10/1972,Decreto,7105,,,
9,6,6371010,Buenos Aires,San Martín,Chacra de Perdriel,s/d,-34.56205556,-58.57272222,Lugar Histórico,"Comisión Nacional de Monumentos, de Lugares y de Bienes Históricos (CNMLBH)",s/d,Nacional,21/5/1942,Decreto,120411,,,
9,6,6371010,Buenos Aires,San Martín,"Ombú en el Museo ""José Hernandez"", sito en la Chacra Pueyrredón",Carballo 5042,-34.56208333,-58.57258333,Árbol Histórico,"Comisión Nacional de Monumentos, de Lugares y de Bienes Históricos (CNMLBH)",s/d,Nacional,22/9/1972,Decreto,6502,,,
9,6,6547020,Buenos Aires,San Miguel del Monte,Fuerte de San Miguel del Monte Gargano,s/d,-35.44477778,-58.80166667,Lugar Histórico,"Comisión Nacional de Monumentos, de Lugares y de Bienes Históricos (CNMLBH)",s/d,Nacional,5/4/1968,Decreto,1790,,,
9,6,6547020,Buenos Aires,San Miguel del Monte,Iglesia y Casa Parroquial San Miguel del Monte,"Hipólito Yrigoyen entre Bartolomé Mitre y Lenadro N. Alem, frente a la Plaza Alsina",-35.44163889,-58.80361111,Monumento Histórico,"Comisión Nacional de Monumentos, de Lugares y de Bienes Históricos (CNMLBH)",s/d,Nacional,12/9/1969,Decreto,5238,,,
9,6,6763050,Buenos Aires,San Nicolás,Casa del Acuerdo en San Nicolás de los Arroyos,De la Nación 143,-33.33005556,-60.2165,Monumento Histórico,"Comisión Nacional de Monumentos, de Lugares y de Bienes Históricos (CNMLBH)",s/d,Nacional,7/6/1957,Decreto,6080,,,
9,6,6763050,Buenos Aires,San Nicolás,Escuela Nacional Normal Mixta,Intersección de Sarmiento y Lavalle,-33327,-60.21911111,Lugar Histórico,"Comisión Nacional de Monumentos, de Lugares y de Bienes Históricos (CNMLBH)",s/d,Nacional,7/1/1975,Decreto,29,,,
9,6,6763050,Buenos Aires,San Nicolás,La columna que encierra los restos del Cnel. de Marina Juan Bautista Azopardo,s/d,-33.32833333,-60.21275,Monumento Histórico,"Comisión Nacional de Monumentos, de Lugares y de Bienes Históricos (CNMLBH)",s/d,Nacional,28/10/1949,Decreto,27286,,,
9,6,6763050,Buenos Aires,San Nicolás,"Teatro Municipal ""Rafael Aguiar""",De la Nación esq. Maipú,-33.33425,-60.22008333,Monumento Histórico,"Comisión Nacional de Monumentos, de Lugares y de Bienes Históricos (CNMLBH)",s/d,Nacional,21/6/2011,Decreto,837,,,
9,6,6770050,Buenos Aires,San Pedro,"Vuelta de Obligado, sobre el río Paraná",s/d,-33.59255556,-59.80758333,Lugar Histórico,"Comisión Nacional de Monumentos, de Lugares y de Bienes Históricos (CNMLBH)",s/d,Nacional,21/5/1942,Decreto,120411,,,
9,6,6778020,Buenos Aires,San Vicente,Predio que perteneciera al ex presidente de la Nación General Juán Domingo Perón y a su señora esposa Da. María Eva Duarte de Perón,s/d,-35.02030556,-58.43661111,Lugar Histórico,"Comisión Nacional de Monumentos, de Lugares y de Bienes Históricos (CNMLBH)",s/d,Nacional,28/11/2002,Ley,25712,,,
9,6,6035010,Buenos Aires,Sarandí,"Sala donde estuviera internada Eva Perón en el Hospital Interzonal General de Agudos ""Pte. Perón""",Anatole France 773,-34.68105556,-58.35794444,Lugar Histórico,"Comisión Nacional de Monumentos, de Lugares y de Bienes Históricos (CNMLBH)",s/d,Nacional,23/4/2007,Decreto,393,,,
9,6,6791050,Buenos Aires,Tandil,Iglesia Parroquial Matriz Santísimo Sacramento,Av. Belgrano 514,-37.32952778,-59.13613889,Monumento Histórico,"Comisión Nacional de Monumentos, de Lugares y de Bienes Históricos (CNMLBH)",s/d,Nacional,27/11/2000,Ley,25357,,,
9,6,6798020,Buenos Aires,Tapalque,Combate de Tapalque y Tapalque Viejo,s/d,-36.53391667,-60.07027778,Lugar Histórico,"Comisión Nacional de Monumentos, de Lugares y de Bienes Históricos (CNMLBH)",s/d,Nacional,10/12/1945,Decreto,30825,,,
9,6,6805010,Buenos Aires,Tigre,Almacén Faggionato,25 de Mayo esquina Estrada,-34.42455556,-58.58861111,Monumento Histórico,"Comisión Nacional de Monumentos, de Lugares y de Bienes Históricos (CNMLBH)",s/d,Nacional,4/9/1979,Decreto,2187,,,
9,6,6805010,Buenos Aires,Tigre,"Casa de la familia Peró. ""Villa Margarita""",Liniers 1396 (y Sargento Díaz),-34.42258333,-58.58861111,Monumento Histórico,"Comisión Nacional de Monumentos, de Lugares y de Bienes Históricos (CNMLBH)",s/d,Nacional,4/9/1979,Decreto,2187,,,
9,6,6805010,Buenos Aires,Tigre,Casa en la calle Esmeralda 304 (Antigua Aduana de Tigre),Esmeralda 304,-34.42583333,-58.59088889,Monumento Histórico,"Comisión Nacional de Monumentos, de Lugares y de Bienes Históricos (CNMLBH)",s/d,Nacional,4/9/1979,Decreto,2187,,,
9,6,6805010,Buenos Aires,Tigre,Casa que habito el Tte. Gral.Angel Pacheco,Dentro del Country Pacheco,-34.46186111,-58.6235,Monumento Histórico,"Comisión Nacional de Monumentos, de Lugares y de Bienes Históricos (CNMLBH)",s/d,Nacional,7/5/1982,Decreto,912,,,
9,6,6805010,Buenos Aires,Tigre,Club de Regatas La Marina,s/d,-34.41405556,-58.57972222,Monumento Histórico,"Comisión Nacional de Monumentos, de Lugares y de Bienes Históricos (CNMLBH)",s/d,Nacional,22/7/2014,Decreto,1163,,,
9,6,6805010,Buenos Aires,Tigre,Desembarco del Cap. de Navío Santiago de Liniers,s/d,-34.41663889,-58.59011111,Lugar Histórico,"Comisión Nacional de Monumentos, de Lugares y de Bienes Históricos (CNMLBH)",s/d,Nacional,4/8/1980,Decreto,1570,,,
9,6,6805010,Buenos Aires,Tigre,"Ex Centro Clandestino de Detención ""La Anguilera""",s/d,-34.42333333,-58.56297222,Lugar Histórico,"Comisión Nacional de Monumentos, de Lugares y de Bienes Históricos (CNMLBH)",s/d,Nacional,2/10/2014,Decreto,1762,,,
9,6,6805010,Buenos Aires,Tigre,Museo Naval y Centro Naval,Paseo Victorica 602,-34.41286111,-58.58638889,Monumento Histórico,"Comisión Nacional de Monumentos, de Lugares y de Bienes Históricos (CNMLBH)",s/d,Nacional,4/9/1979,Decreto,2187,,,
9,6,6805010,Buenos Aires,Tigre,Tigre Club,Paseo Victorica 900,-34.40916667,-58.59094444,Monumento Histórico,"Comisión Nacional de Monumentos, de Lugares y de Bienes Históricos (CNMLBH)",s/d,Nacional,4/9/1979,Decreto,2187,,,
9,6,6819040,Buenos Aires,Tornquist,Comandancia del Fuerte Argentino,s/d,-38.21952778,-62.41211111,Monumento Histórico,"Comisión Nacional de Monumentos, de Lugares y de Bienes Históricos (CNMLBH)",s/d,Nacional,5/4/1968,Decreto,1792,,,
9,6,6819040,Buenos Aires,Tornquist,Conjunto integrado por la Plaza Ernesto Tornquist y el Palacio Municipal,s/d,-38.10055556,-62.22283333,Bien de Interés Histórico y Artístico,"Comisión Nacional de Monumentos, de Lugares y de Bienes Históricos (CNMLBH)",s/d,Nacional,21/7/2014,Decreto,1138,,,
9,6,6819040,Buenos Aires,Tornquist,Cruz del Cementerio,Avenida Moreno y calle 38,-38.09019444,-62.21877778,Bien de Interés Histórico y Artístico,"Comisión Nacional de Monumentos, de Lugares y de Bienes Históricos (CNMLBH)",s/d,Nacional,21/7/2014,Decreto,1138,,,
9,6,6819040,Buenos Aires,Tornquist,Fortín Pavón,"Cuartel V. A 19 Km al oeste de Tornquist, sobre el camino que une las Rutas N°35 y N°33, a orillas del Arroyo Sauce Chico",-38.18922222,-62.40663889,Lugar Histórico,"Comisión Nacional de Monumentos, de Lugares y de Bienes Históricos (CNMLBH)",s/d,Nacional,4/8/1980,Decreto,1571,,,
9,6,6826050,Buenos Aires,Trenque Lauquen,Comandancia del Coronel Villegas,s/d,-35.97366667,-62.73341667,Monumento Histórico,"Comisión Nacional de Monumentos, de Lugares y de Bienes Históricos (CNMLBH)",s/d,Nacional,10/4/1958,Decreto,4452,,,
9,6,6847020,Buenos Aires,Tres Lomas,Conjunto integrado por la Plaza Leandro N. Alem y la Sede Municipal,s/d,-36.45913889,-62.86258333,Bien de Interés Histórico y Artístico,"Comisión Nacional de Monumentos, de Lugares y de Bienes Históricos (CNMLBH)",s/d,Nacional,21/7/2014,Decreto,1138,,,
9,6,6847020,Buenos Aires,Tres Lomas,Matadero Municipal,Calles Rivadavia y Carlos Gardel,-36.4505,-62.85177778,Monumento Histórico,"Comisión Nacional de Monumentos, de Lugares y de Bienes Históricos (CNMLBH)",s/d,Nacional,21/7/2014,Decreto,1138,,,
9,6,6462060,Buenos Aires,Vedia,Conjunto integrado por la Plaza Rivadavia y el Palacio Municipal,Mariano Rosas y Conrado Villegas,-34.49788889,-61.54238889,Bien de Interés Histórico y Artístico,"Comisión Nacional de Monumentos, de Lugares y de Bienes Históricos (CNMLBH)",s/d,Nacional,21/7/2014,Decreto,1138,,,
9,6,6462060,Buenos Aires,Vedia,Matadero Municipal,Avenida Villegas 555,-34.49894444,-61.55902778,Bien de Interés Histórico y Artístico,"Comisión Nacional de Monumentos, de Lugares y de Bienes Históricos (CNMLBH)",s/d,Nacional,21/7/2014,Decreto,1138,,,
9,6,6868020,Buenos Aires,Villa Gesell,Primera vivienda familiar de Carlos Idaho Gesell,Calle 302 y Av. 201,-37.25202778,-56.96255556,Bien de Interés Histórico,"Comisión Nacional de Monumentos, de Lugares y de Bienes Históricos (CNMLBH)",s/d,Nacional,24/6/2013,Decreto,784,,,
9,6,6875070,Buenos Aires,Villarino,Paso Pacheco (sobre el Río Colorado),s/d,-39.52563889,-62.66188889,Lugar Histórico,"Comisión Nacional de Monumentos, de Lugares y de Bienes Históricos (CNMLBH)",s/d,Nacional,13/10/1943,Decreto,11146,,,
9,6,6035010,Buenos Aires,Wilde,Planta elevadora de líquidos cloacales (varios lugares - ver Decreto),Las Flores 701,-34.69761111,-58.31011111,Monumento Histórico,"Comisión Nacional de Monumentos, de Lugares y de Bienes Históricos (CNMLBH)",s/d,Nacional,15/11/2013,Decreto,1843,,,
9,6,6882050,Buenos Aires,Zárate,Teatro Coliseo - Sede de la Sociedad Unione Italiana XX de Settembre,19 de marzo 314,-34.09752778,-59.02216667,Bien de interés histórico-artístico,"Comisión Nacional de Monumentos, de Lugares y de Bienes Históricos (CNMLBH)",s/d,Nacional,21/6/2011,Decreto,837,,,
9,6,6882050,Buenos Aires,Zárate,"Zárate Brazo Largo, Complejo Ferrovial ""Unión Nacional"", integrado por los puentes ""Bartolomé Mitre"" y ""Justo José de Urquiza""",s/d,-34.10313889,-59.00275,Bien de Interés Histórico,"Comisión Nacional de Monumentos, de Lugares y de Bienes Históricos (CNMLBH)",s/d,Nacional,16/4/2008,Decreto,653,,,
9,6,6602010,Buenos Aires,s/d,Faro Segunda Barranca,Carmen de Patagones,-40.77538889,-62.27388889,Monumento Histórico,"Comisión Nacional de Monumentos, de Lugares y de Bienes Históricos (CNMLBH)",s/d,Nacional,15/11/2010,Ley,26650,,,
9,6,6553020,Buenos Aires,s/d,Faro Recalada a Bahía Blanca,Monte Hermoso,-38.99075,-61.25997222,Monumento Histórico,"Comisión Nacional de Monumentos, de Lugares y de Bienes Históricos (CNMLBH)",s/d,Nacional,15/11/2010,Ley,26650,,,
9,6,6357110,Buenos Aires,s/d,Faro Punta Mogotes,Mar del Plata,-38.09169444,-57.54491667,Monumento Histórico,"Comisión Nacional de Monumentos, de Lugares y de Bienes Históricos (CNMLBH)",s/d,Nacional,15/11/2010,Ley,26650,,,
9,6,6868010,Buenos Aires,s/d,Faro Querandí,Villa Gesell,-37.46444444,-57.11416667,Monumento Histórico,"Comisión Nacional de Monumentos, de Lugares y de Bienes Históricos (CNMLBH)",s/d,Nacional,15/11/2010,Ley,26650,,,
9,6,6420020,Buenos Aires,s/d,Faro Punta Médanos,Partido de la Costa,-36.88294444,-56.67497222,Monumento Histórico,"Comisión Nacional de Monumentos, de Lugares y de Bienes Históricos (CNMLBH)",s/d,Nacional,15/11/2010,Ley,26650,,,
9,6,6420030,Buenos Aires,s/d,Faro San Antonio,Partido de la Costa,-36.30661111,-56.77322222,Monumento Histórico,"Comisión Nacional de Monumentos, de Lugares y de Bienes Históricos (CNMLBH)",s/d,Nacional,15/11/2010,Ley,26650,,,
9,6,6028010,Buenos Aires,Almirante Brown,Casa donde viviera Jorge Luis Borges,Diagonal Brown 301,-34.79811111,-58.38519444,Bien de Interés Histórico Nacional,"Comisión Nacional de Monumentos, de Lugares y de Bienes Históricos (CNMLBH)",s/d,Nacional,26/8/2016,Ley,27268,,,
9,6,6791050,Buenos Aires,Tandil,Edificio donde funciona el Rectorado de la Universidad Nacional del Centro de la Provincia de Buenos Aires,Esquina de las calles Pinto y Chacabuco,-37.32875,-59.13880556,Bien de Interés Histórico Nacional,"Comisión Nacional de Monumentos, de Lugares y de Bienes Históricos (CNMLBH)",s/d,Nacional,18/11/2016,Ley,27298,,,
9,6,6756010,Buenos Aires,Boulogne Sur Mer,"Casa de Don Avelino Rolón, ubicada en la ""Quinta Santa Rita""",Intersección de las calles Lamadrid y Gorriti,-34.50302778,-58.55330556,Monumento Histórico,"Comisión Nacional de Monumentos, de Lugares y de Bienes Históricos (CNMLBH)",s/d,Nacional,2/12/2016,Ley,27313,,,
9,6,6497060,Buenos Aires,Luján,Predio donde se veneró por primera vez en Luján a la Virgen,s/d,-34.56419444,-59.12047222,Lugar Històrico Nacional,"Comisión Nacional de Monumentos, de Lugares y de Bienes Históricos (CNMLBH)",s/d,Nacional,s/d,Decreto,325,,,
9,6,6728040,Buenos Aires,San Andrés de Giles,Enrique Larrañaga,s/d,-34.42333333,-59.44788889,Sepulcro Histórico,"Comisión Nacional de Monumentos, de Lugares y de Bienes Históricos (CNMLBH)",s/d,Nacional,11/8/2017,Decreto,633,,,
9,6,6623100,Buenos Aires,Pergamino,Centro documental “Ing. Agr. Alejo Von Der Pahlen”, Torre tanque de agua, edificio central “Ing. Agr. Santiago Boaglio” , centro de capacitación “Dr. Norman Borlaug” (Antiguo Galpón de Esquila) y Galpón de semillas (Antiguo Galpón de Maquinarias).,"Avenida Arturo Frondizi (Ruta Provincial N° 32), Km. 4.5",-33.93536111,-60.56108333,Bien de Interés Histórico,"Comisión Nacional de Monumentos, de Lugares y de Bienes Históricos (CNMLBH)",s/d,Nacional,11/8/2017,Decreto,636
9,6,6623100,Buenos Aires,Pergamino,Conjunto de edificios y senderos existentes dentro del polígono  que conforma el casco de la estación experimental agropecuaria Pergamino,"Avenida Arturo Frondizi (Ruta Provincial N° 32), Km. 4.5",-33.93536111,-60.56108333,Lugar Histórico Nacional,"Comisión Nacional de Monumentos, de Lugares y de Bienes Históricos (CNMLBH)",s/d,Nacional,11/8/2017,Decreto,636,,,
9,6,6581040,Buenos Aires,Necochea,"Puente colgante “Presidente Hipólito Irigoyen""",Cruce Rio Quequén Grande,-38552,-58.72561111,Monumento Histórico Nacional,"Comisión Nacional de Monumentos, de Lugares y de Bienes Históricos (CNMLBH)",Puente colgante que une las ciudades de Necochea y Quequén.,Nacional,9/8/2017,Decreto,620,,,
9,6,6441030,Buenos Aires,La Plata,Casa de Gobierno,Calle 5 entre 51 y 53,-34.91458333,-57.94711111,Monumento Histórico Nacional,"Comisión Nacional de Monumentos, de Lugares y de Bienes Históricos (CNMLBH)",s/d,Nacional,20/12/2017,Decreto,1055,,,
9,6,6441030,Buenos Aires,La Plata,Residencia del Gobernador,Calle 6 entre 53 y 51,-34.91419444,-57.94658333,Monumento Histórico Nacional,"Comisión Nacional de Monumentos, de Lugares y de Bienes Históricos (CNMLBH)",s/d,Nacional,20/12/2017,Decreto,1055,,,
9,2,2000010,Ciudad Autónoma de Buenos Aires,Ciudad Autónoma de Buenos Aires,Administración de los Mataderos,Lisandro de la Torre y El Resero,-34.66130556,-58.50172222,Monumento Histórico,"Comisión Nacional de Monumentos, de Lugares y de Bienes Históricos (CNMLBH)",s/d,Nacional,3/5/1979,Decreto,1021,,,
9,2,2000010,Ciudad Autónoma de Buenos Aires,Ciudad Autónoma de Buenos Aires,Administración de Parques Nacionales,Avenida Santa Fe 690,-34.59580556,-58.37711111,Monumento Histórico,"Comisión Nacional de Monumentos, de Lugares y de Bienes Históricos (CNMLBH)",s/d,Nacional,18/4/2001,Ley,25427,,,
9,2,2000010,Ciudad Autónoma de Buenos Aires,Ciudad Autónoma de Buenos Aires,Adolfo Alsina,Recoleta,-34.5875,-58.39338889,Sepulcro,"Comisión Nacional de Monumentos, de Lugares y de Bienes Históricos (CNMLBH)",s/d,Nacional,31/1/1946,Decreto,3039,,,
9,2,2000010,Ciudad Autónoma de Buenos Aires,Ciudad Autónoma de Buenos Aires,Aduana Nacional,Azopardo 350,-34.61152778,-58.36772222,Monumento Histórico,"Comisión Nacional de Monumentos, de Lugares y de Bienes Históricos (CNMLBH)",s/d,Nacional,17/9/2009,Decreto,1309,,,
9,2,2000010,Ciudad Autónoma de Buenos Aires,Ciudad Autónoma de Buenos Aires,Aguaribay (árbol) en terrenos del Instituto Bernasconi,s/d,-34.63408333,-58402,Árbol Histórico,"Comisión Nacional de Monumentos, de Lugares y de Bienes Históricos (CNMLBH)",s/d,Nacional,23/7/1943,Decreto,3369,,,
9,2,2000010,Ciudad Autónoma de Buenos Aires,Ciudad Autónoma de Buenos Aires,Alte. Guillermo Brown,Recoleta,-34.5875,-58.39338889,Sepulcro,"Comisión Nacional de Monumentos, de Lugares y de Bienes Históricos (CNMLBH)",s/d,Nacional,31/1/1946,Decreto,3039,,,
9,2,2000010,Ciudad Autónoma de Buenos Aires,Ciudad Autónoma de Buenos Aires,Altos de Elorriaga,Defensa 183/85 Alsina 417/21,-34.61002778,-58.37227778,Monumento Histórico,"Comisión Nacional de Monumentos, de Lugares y de Bienes Históricos (CNMLBH)",s/d,Nacional,24/10/1997,Decreto,1110,,,
9,2,2000010,Ciudad Autónoma de Buenos Aires,Ciudad Autónoma de Buenos Aires,Amadeo Jaques,Recoleta,-34.5875,-58.39338889,Sepulcro,"Comisión Nacional de Monumentos, de Lugares y de Bienes Históricos (CNMLBH)",s/d,Nacional,31/1/1946,Decreto,3039,,,
9,2,2000010,Ciudad Autónoma de Buenos Aires,Ciudad Autónoma de Buenos Aires,Ambrosio Plácido Lezica,Recoleta,-34.5875,-58.39338889,Sepulcro,"Comisión Nacional de Monumentos, de Lugares y de Bienes Históricos (CNMLBH)",s/d,Nacional,7/6/1979,Decreto,1327,,,
9,2,2000010,Ciudad Autónoma de Buenos Aires,Ciudad Autónoma de Buenos Aires,"Antigua casa central del ""Banco Hipotecario de la provincia de Buenos Aires"" (actual sede del Banco Central de la República Argentina)",San Martín 275 y Reconquista 258/66/74,-34605,-58.37266667,Monumento Histórico,"Comisión Nacional de Monumentos, de Lugares y de Bienes Históricos (CNMLBH)",s/d,Nacional,9/12/2005,Decreto,1563,,,
9,2,2000010,Ciudad Autónoma de Buenos Aires,Ciudad Autónoma de Buenos Aires,"Antigua casa central del Banco ""El Hogar Argentino""",Bartolomé Mitre 567/75/79,-34.60686111,-58.3745,Monumento Histórico,"Comisión Nacional de Monumentos, de Lugares y de Bienes Históricos (CNMLBH)",s/d,Nacional,9/12/2005,Decreto,1563,,,
9,2,2000010,Ciudad Autónoma de Buenos Aires,Ciudad Autónoma de Buenos Aires,"Antigua residencia de don Gregorio Lezama, sede del Museo Histórico Nacional, quedando su entorno que fuera jardín particular, actual Parque Lezama",Defensa 1652 - Parque Lezama:Defensa/Brasil/Martín García/Paseo Colón,-34.62688889,-58.37075,Monumento Histórico,"Comisión Nacional de Monumentos, de Lugares y de Bienes Históricos (CNMLBH)",s/d,Nacional,16/5/1997,Decreto,437,,,
9,2,2000010,Ciudad Autónoma de Buenos Aires,Ciudad Autónoma de Buenos Aires,"Antigua sede de la Bolsa de Comercio de Buenos Aires (actual Museo Numismático ""José E. Uriburu"" del Banco Central)",San Martín 216,-34.60533333,-58.37386111,Monumento Histórico,"Comisión Nacional de Monumentos, de Lugares y de Bienes Históricos (CNMLBH)",s/d,Nacional,9/12/2005,Decreto,1563,,,
9,2,2000010,Ciudad Autónoma de Buenos Aires,Ciudad Autónoma de Buenos Aires,Antonio Sáenz,Recoleta,-34.5875,-58.39338889,Sepulcro,"Comisión Nacional de Monumentos, de Lugares y de Bienes Históricos (CNMLBH)",s/d,Nacional,31/1/1946,Decreto,3039,,,
9,2,2000010,Ciudad Autónoma de Buenos Aires,Ciudad Autónoma de Buenos Aires,Apostadero Naval Buenos Aires,Dársena Norte del Puerto de Buenos Aires,-34.59366667,-58.36852778,Monumento Histórico,"Comisión Nacional de Monumentos, de Lugares y de Bienes Históricos (CNMLBH)",s/d,Nacional,15/4/1999,Decreto,339,,,
9,2,2000010,Ciudad Autónoma de Buenos Aires,Ciudad Autónoma de Buenos Aires,Archivo Histórico del Cementerio de la Chacarita,s/d,-34.58925,-58.45925,Bien de interés histórico,"Comisión Nacional de Monumentos, de Lugares y de Bienes Históricos (CNMLBH)",s/d,Nacional,21/4/2010,Decreto,525,,,
9,2,2000010,Ciudad Autónoma de Buenos Aires,Ciudad Autónoma de Buenos Aires,Archivo histórico del Crematorio Municipal,Cementerio de la Chacarita,-34.58925,-58.45925,Bien de Interés Histórico,"Comisión Nacional de Monumentos, de Lugares y de Bienes Históricos (CNMLBH)",s/d,Nacional,2/10/2007,Decreto,1289,,,
9,2,2000010,Ciudad Autónoma de Buenos Aires,Ciudad Autónoma de Buenos Aires,Archivo Nacional sobre la desaparición de personas (CONADEP),"En custodia en el Archivo Nacional de la Memoria (Secretaría de Derechos Humanos - Ministerio de Justicia, Seguridad y Derechos Humanos)",-34.53819444,-58.46388889,Bien de Interés Histórico,"Comisión Nacional de Monumentos, de Lugares y de Bienes Históricos (CNMLBH)",s/d,Nacional,8/7/2004,Decreto,848,,,
9,2,2000010,Ciudad Autónoma de Buenos Aires,Ciudad Autónoma de Buenos Aires,"Archivo y Museo Históricos del Banco de la Provincia de Buenos Aires ""Dr. Arturo Jauretche""",Sarmiento 364,-34.60427778,-58.37186111,Monumento Histórico,"Comisión Nacional de Monumentos, de Lugares y de Bienes Históricos (CNMLBH)",s/d,Nacional,9/12/2005,Decreto,1563,,,
9,2,2000010,Ciudad Autónoma de Buenos Aires,Ciudad Autónoma de Buenos Aires,Archivos de Plano de Redes, Archivos de Planos domiciliarios y Archivos de Rentas de Buenos Aires de AYSA S.A.,Av. Córdoba 1950,-34.60016667,-58.39494444,Bien de Interés Histórico,"Comisión Nacional de Monumentos, de Lugares y de Bienes Históricos (CNMLBH)",s/d,Nacional,21/4/2010,Decreto,526,,
9,2,2000010,Ciudad Autónoma de Buenos Aires,Ciudad Autónoma de Buenos Aires,Área contigua al edificio Club de Pescadores,"El muelle y el área contigua desde su eje, en una extensión de 100 metros hacia el noroeste y el sudeste",-34.56261111,-58.40225,Lugar Histórico,"Comisión Nacional de Monumentos, de Lugares y de Bienes Históricos (CNMLBH)",s/d,Nacional,11/6/2001,Decreto,766,,,
9,2,2000010,Ciudad Autónoma de Buenos Aires,Ciudad Autónoma de Buenos Aires,"Area Retiro (Avs. San Martín, Antártida Argentina, R. Mejía, Martínez Zuviría, Illia, Libertador)",s/d,-34.59038889,-58.37455556,Lugar Histórico,"Comisión Nacional de Monumentos, de Lugares y de Bienes Históricos (CNMLBH)",s/d,Nacional,20/3/1997,Decreto,262,,,
9,2,2000010,Ciudad Autónoma de Buenos Aires,Ciudad Autónoma de Buenos Aires,Aristóbulo del Valle,Recoleta,-34.5875,-58.39338889,Sepulcro,"Comisión Nacional de Monumentos, de Lugares y de Bienes Históricos (CNMLBH)",s/d,Nacional,10/12/1945,Decreto,30837,,,
9,2,2000010,Ciudad Autónoma de Buenos Aires,Ciudad Autónoma de Buenos Aires,Asociación Argentina de Actores,Alsina 1762/66,-34.61158333,-58.39125,Monumento Histórico Artístico,"Comisión Nacional de Monumentos, de Lugares y de Bienes Históricos (CNMLBH)",s/d,Nacional,22/9/1999,Ley,25176,,,
9,2,2000010,Ciudad Autónoma de Buenos Aires,Ciudad Autónoma de Buenos Aires,Asociación Italiana de Mutualidad e Instrucción Unione e Benevolenza,Tte. Gral. Juan Domingo Perón Nros. 1352/72,-34.60641667,-58.38577778,Monumento Histórico,"Comisión Nacional de Monumentos, de Lugares y de Bienes Históricos (CNMLBH)",s/d,Nacional,22/7/2014,Decreto,1163,,,
9,2,2000010,Ciudad Autónoma de Buenos Aires,Ciudad Autónoma de Buenos Aires,"Automóvil ""El Justicialista""",s/d,-34.56283333,-58.45316667,Bien de interés histórico nacional,"Comisión Nacional de Monumentos, de Lugares y de Bienes Históricos (CNMLBH)",s/d,Nacional,13/8/2015,Decreto,1673,,,
9,2,2000010,Ciudad Autónoma de Buenos Aires,Ciudad Autónoma de Buenos Aires,Avenida de Mayo,s/d,-34.60891667,-58.38,Lugar Histórico,"Comisión Nacional de Monumentos, de Lugares y de Bienes Históricos (CNMLBH)",s/d,Nacional,16/5/1997,Decreto,437,,,
9,2,2000010,Ciudad Autónoma de Buenos Aires,Ciudad Autónoma de Buenos Aires,Banco de la Nación Argentina - Casa Central,"Manzana entre Av Rivadavia y calles Reconquista, B Mitre y 25 de Mayo con entrada principal por Av Rivadavia 317/25/33",-34.60733333,-58.37144444,Monumento Histórico,"Comisión Nacional de Monumentos, de Lugares y de Bienes Históricos (CNMLBH)",s/d,Nacional,19/6/2002,Decreto,1055,,,
9,2,2000010,Ciudad Autónoma de Buenos Aires,Ciudad Autónoma de Buenos Aires,Banco de la Provincia de Buenos Aires - Casa Central,San Martín 133/37/41 esquina Bartolomé Mitre 451/57/65/67/69,-34.60636111,-58.37363889,Monumento Histórico,"Comisión Nacional de Monumentos, de Lugares y de Bienes Históricos (CNMLBH)",s/d,Nacional,9/12/2005,Decreto,1563,,,
9,2,2000010,Ciudad Autónoma de Buenos Aires,Ciudad Autónoma de Buenos Aires,Banco Hipotecario S.A. (ex Banco de Londres),Reconquista 101/105/135/151/157,-34.60647222,-58.37219444,Monumento Histórico,"Comisión Nacional de Monumentos, de Lugares y de Bienes Históricos (CNMLBH)",s/d,Nacional,2/12/1999,Decreto,1433,,,
9,2,2000010,Ciudad Autónoma de Buenos Aires,Ciudad Autónoma de Buenos Aires,"Basílica ""Sagrado Corazón de Jesús""",Av. Vélez Sarsfield 1351,-34.65105556,-58.38936111,Bien de Interés Histórico Artístico,"Comisión Nacional de Monumentos, de Lugares y de Bienes Históricos (CNMLBH)",s/d,Nacional,25/3/2009,Ley,26482,,,
9,2,2000010,Ciudad Autónoma de Buenos Aires,Ciudad Autónoma de Buenos Aires,Basílica del Pilar,Junín 1898/1904,-34.58683333,-58.39211111,Monumento Histórico,"Comisión Nacional de Monumentos, de Lugares y de Bienes Históricos (CNMLBH)",s/d,Nacional,21/5/1942,Decreto,120412,,,
9,2,2000010,Ciudad Autónoma de Buenos Aires,Ciudad Autónoma de Buenos Aires,Benjamín Paz,Recoleta,-34.5875,-58.39338889,Sepulcro,"Comisión Nacional de Monumentos, de Lugares y de Bienes Históricos (CNMLBH)",s/d,Nacional,15/2/2007,Decreto,124,,,
9,2,2000010,Ciudad Autónoma de Buenos Aires,Ciudad Autónoma de Buenos Aires,Bernardino Rivadavia,Plaza Once,-34.60969444,-58.40744444,Sepulcro,"Comisión Nacional de Monumentos, de Lugares y de Bienes Históricos (CNMLBH)",s/d,Nacional,31/1/1946,Decreto,3039,,,
9,2,2000010,Ciudad Autónoma de Buenos Aires,Ciudad Autónoma de Buenos Aires,Bernardo Monteagudo,Recoleta,-34.587523,-58.39343,Sepulcro,"Comisión Nacional de Monumentos, de Lugares y de Bienes Históricos (CNMLBH)",s/d,Nacional,31/1/1946,Decreto,3039,,,
9,2,2000010,Ciudad Autónoma de Buenos Aires,Ciudad Autónoma de Buenos Aires,Biblioteca Americana y el Archivo Histórico del Museo Mitre,San Martín 336,-34604,-58.37388889,Bien de interés histórico,"Comisión Nacional de Monumentos, de Lugares y de Bienes Históricos (CNMLBH)",s/d,Nacional,16/6/2010,Decreto,856,,,
9,2,2000010,Ciudad Autónoma de Buenos Aires,Ciudad Autónoma de Buenos Aires,Bóveda que guarda los restos de Carlos Gardel,Cementerio de la Chacarita,-34.58925,-58.45925,Sepulcro,"Comisión Nacional de Monumentos, de Lugares y de Bienes Históricos (CNMLBH)",s/d,Nacional,12/12/2006,Decreto,1839,,,
9,2,2000010,Ciudad Autónoma de Buenos Aires,Ciudad Autónoma de Buenos Aires,Cabildo de la Ciudad de Buenos Aires,Bolivar 65,-34.60872222,-58.37361111,Monumento Histórico,"Comisión Nacional de Monumentos, de Lugares y de Bienes Históricos (CNMLBH)",s/d,Nacional,30/5/1933,Ley,11688,,,
9,2,2000010,Ciudad Autónoma de Buenos Aires,Ciudad Autónoma de Buenos Aires,Caídos en la Revolución de 1890-L.N.Alem y H.Yrigoyen,Recoleta,-34.5875,-58.39338889,Sepulcro,"Comisión Nacional de Monumentos, de Lugares y de Bienes Históricos (CNMLBH)",s/d,Nacional,21/9/1960,Ley,15454,,,
9,2,2000010,Ciudad Autónoma de Buenos Aires,Ciudad Autónoma de Buenos Aires,"Campo de Deportes del ""Buenos Aires Criket Club""",s/d,-34.57041667,-58.41225,Lugar Histórico,"Comisión Nacional de Monumentos, de Lugares y de Bienes Históricos (CNMLBH)",s/d,Nacional,14/5/1948,Decreto,14028,,,
9,2,2000010,Ciudad Autónoma de Buenos Aires,Ciudad Autónoma de Buenos Aires,Canónigo Diego Estanislao Zavaleta,Catedral de Buenos Aires,-34.60775,-58.37325,Sepulcro,"Comisión Nacional de Monumentos, de Lugares y de Bienes Históricos (CNMLBH)",s/d,Nacional,11/7/1946,Decreto,2236,,,
9,2,2000010,Ciudad Autónoma de Buenos Aires,Ciudad Autónoma de Buenos Aires,Canónigo José Eusebio de Aguero,Catedral de Buenos Aires,-34.60775,-58.37325,Sepulcro,"Comisión Nacional de Monumentos, de Lugares y de Bienes Históricos (CNMLBH)",s/d,Nacional,11/7/1946,Decreto,2236,,,
9,2,2000010,Ciudad Autónoma de Buenos Aires,Ciudad Autónoma de Buenos Aires,Canónigo Julián Segundo Aguero,Catedral de Buenos Aires,-34.60775,-58.37325,Sepulcro,"Comisión Nacional de Monumentos, de Lugares y de Bienes Históricos (CNMLBH)",s/d,Nacional,11/7/1946,Decreto,2236,,,
9,2,2000010,Ciudad Autónoma de Buenos Aires,Ciudad Autónoma de Buenos Aires,Cap.de Marina Alejandro Murature,Recoleta,-34.5875,-58.39338889,Sepulcro,"Comisión Nacional de Monumentos, de Lugares y de Bienes Históricos (CNMLBH)",s/d,Nacional,12/6/1962,Decreto,5407,,,
9,2,2000010,Ciudad Autónoma de Buenos Aires,Ciudad Autónoma de Buenos Aires,Capilla de San Roque,Alsina y Defensa,-34.61033333,-58.37152778,Monumento Histórico,"Comisión Nacional de Monumentos, de Lugares y de Bienes Históricos (CNMLBH)",s/d,Nacional,21/5/1942,Decreto,120412,,,
9,2,2000010,Ciudad Autónoma de Buenos Aires,Ciudad Autónoma de Buenos Aires,Capilla del Cementerio Británico,s/d,-34.59033333,-58.46544444,Monumento Histórico,"Comisión Nacional de Monumentos, de Lugares y de Bienes Históricos (CNMLBH)",s/d,Nacional,21/4/2010,Decreto,525,,,
9,2,2000010,Ciudad Autónoma de Buenos Aires,Ciudad Autónoma de Buenos Aires,Carlos Pellegrini,Recoleta,-34.5875,-58.39338889,Sepulcro,"Comisión Nacional de Monumentos, de Lugares y de Bienes Históricos (CNMLBH)",s/d,Nacional,23/7/1964,Decreto,5485,,,
9,2,2000010,Ciudad Autónoma de Buenos Aires,Ciudad Autónoma de Buenos Aires,Casa Carabassa,Lafinur 2988,-34.58069444,-58.41463889,Lugar Histórico,"Comisión Nacional de Monumentos, de Lugares y de Bienes Históricos (CNMLBH)",s/d,Nacional,15/4/1999,Decreto,349,,,
9,2,2000010,Ciudad Autónoma de Buenos Aires,Ciudad Autónoma de Buenos Aires,Casa de Carlos Gardel,Jean Jaures 735,-34.60158333,-58.40794444,Lugar Histórico,"Comisión Nacional de Monumentos, de Lugares y de Bienes Históricos (CNMLBH)",s/d,Nacional,16/5/1997,Decreto,437,,,
9,2,2000010,Ciudad Autónoma de Buenos Aires,Ciudad Autónoma de Buenos Aires,Casa de Estudios para Artistas,Paraguay 894/900,-34.59769444,-58.37975,Bien de Interés Histórico Arquitectónico,"Comisión Nacional de Monumentos, de Lugares y de Bienes Históricos (CNMLBH)",s/d,Nacional,2/5/2008,Ley,26365,,,
9,2,2000010,Ciudad Autónoma de Buenos Aires,Ciudad Autónoma de Buenos Aires,Casa de Gobierno (Casa Rosada),Balcarce 50,-34.60825,-58.37041667,Monumento Histórico,"Comisión Nacional de Monumentos, de Lugares y de Bienes Históricos (CNMLBH)",s/d,Nacional,21/5/1942,Decreto,120412,,,
9,2,2000010,Ciudad Autónoma de Buenos Aires,Ciudad Autónoma de Buenos Aires,Casa de Gobierno (Casa Rosada) y la totalidad de las construcciones pertenecientes a la Aduana Nueva o Aduana Taylor y al Fuerte de Buenos Aires (AMPLIACIÓN DEL DECRETO 120.412/42),s/d,-34.60825,-58.37041667,Monumento Histórico,"Comisión Nacional de Monumentos, de Lugares y de Bienes Históricos (CNMLBH)",s/d,Nacional,21/7/2014,Decreto,1137,,,
9,2,2000010,Ciudad Autónoma de Buenos Aires,Ciudad Autónoma de Buenos Aires,"Casa de Gobierno (Casa Rosada), el Museo de la Casa de Gobierno (denominado Museo del Bicentenario), la Plaza Colón y la Reja Federal.",s/d,-34.60825,-58.37041667,Lugar Histórico,"Comisión Nacional de Monumentos, de Lugares y de Bienes Históricos (CNMLBH)",s/d,Nacional,21/7/2014,Decreto,1137,,,
9,2,2000010,Ciudad Autónoma de Buenos Aires,Ciudad Autónoma de Buenos Aires,Casa de la Moneda,Defensa 628 y 646,-34.61519444,-58.37183333,Monumento Histórico,"Comisión Nacional de Monumentos, de Lugares y de Bienes Históricos (CNMLBH)",s/d,Nacional,4/9/1979,Decreto,2186,,,
9,2,2000010,Ciudad Autónoma de Buenos Aires,Ciudad Autónoma de Buenos Aires,Casa de las Academias Nacionales,"Avenida Alvear 1711, Rodriguez Peña 1926/30",-34.58886111,-58.38708333,Monumento Histórico,"Comisión Nacional de Monumentos, de Lugares y de Bienes Históricos (CNMLBH)",s/d,Nacional,16/8/2002,Decreto,1495,,,
9,2,2000010,Ciudad Autónoma de Buenos Aires,Ciudad Autónoma de Buenos Aires,Casa de Liniers,Venezuela 469,-34.61355556,-58.37277778,Monumento Histórico,"Comisión Nacional de Monumentos, de Lugares y de Bienes Históricos (CNMLBH)",s/d,Nacional,21/5/1942,Decreto,120412,,,
9,2,2000010,Ciudad Autónoma de Buenos Aires,Ciudad Autónoma de Buenos Aires,Casa de Mansilla,"Frente sobre Pasaje Juan Angel Golfarini y fachada posterior sobre Tres de Febrero, entre Olazábal y Blanco Encalada",-34.55661111,-58.45405556,Monumento Histórico Artístico,"Comisión Nacional de Monumentos, de Lugares y de Bienes Históricos (CNMLBH)",s/d,Nacional,7/9/2000,Ley,25317,,,
9,2,2000010,Ciudad Autónoma de Buenos Aires,Ciudad Autónoma de Buenos Aires,Casa de María Josefa Ezcurra de Ezcurra,Alsina 455/59,-34.61016667,-58.37283333,Monumento Histórico,"Comisión Nacional de Monumentos, de Lugares y de Bienes Históricos (CNMLBH)",s/d,Nacional,24/10/1997,Decreto,1110,,,
9,2,2000010,Ciudad Autónoma de Buenos Aires,Ciudad Autónoma de Buenos Aires,Casa del Cmte.Tomas Espora,Caseros Nº 2522/26,-34.63566667,-58.39777778,Monumento Histórico,"Comisión Nacional de Monumentos, de Lugares y de Bienes Históricos (CNMLBH)",s/d,Nacional,3/3/1961,Decreto,1690,,,
9,2,2000010,Ciudad Autónoma de Buenos Aires,Ciudad Autónoma de Buenos Aires,Casa del Dr. Baldomero Fernández Moreno,Francisco Bilbao 2384,-34.63491667,-58.45994444,Monumento Histórico Artístico,"Comisión Nacional de Monumentos, de Lugares y de Bienes Históricos (CNMLBH)",s/d,Nacional,14/8/1996,Ley,24678,,,
9,2,2000010,Ciudad Autónoma de Buenos Aires,Ciudad Autónoma de Buenos Aires,Casa del Dr. Bernardo Alberto Houssay,Viamonte 2790,-34.60083333,-58.40541667,Lugar Histórico,"Comisión Nacional de Monumentos, de Lugares y de Bienes Históricos (CNMLBH)",s/d,Nacional,15/4/1999,Decreto,349,,,
9,2,2000010,Ciudad Autónoma de Buenos Aires,Ciudad Autónoma de Buenos Aires,Casa del Gral. Miguel de Azcuénaga,Rivadavia 413,-34.60775,-58.37244444,Lugar Histórico,"Comisión Nacional de Monumentos, de Lugares y de Bienes Históricos (CNMLBH)",s/d,Nacional,30/5/1961,Decreto,4340,,,
9,2,2000010,Ciudad Autónoma de Buenos Aires,Ciudad Autónoma de Buenos Aires,Casa del Teatro,Avenida Santa Fe Nº 1235/39/43/45,-34.59544444,-58.38483333,Monumento Histórico,"Comisión Nacional de Monumentos, de Lugares y de Bienes Históricos (CNMLBH)",s/d,Nacional,13/8/2002,Decreto,1462,,,
9,2,2000010,Ciudad Autónoma de Buenos Aires,Ciudad Autónoma de Buenos Aires,Casa Marcó del Pont,General Artigas 206,-34.62733333,-58.46522222,Monumento Histórico,"Comisión Nacional de Monumentos, de Lugares y de Bienes Históricos (CNMLBH)",s/d,Nacional,22/7/1976,Decreto,1388,,,
9,2,2000010,Ciudad Autónoma de Buenos Aires,Ciudad Autónoma de Buenos Aires,Casa Nacional de la Cultura - sede de la Secretaría de Cultura de la Nación,"Avenida Alvear 1690, Rodriguez Peña 1881",-34.58925,-58.38697222,Monumento Histórico,"Comisión Nacional de Monumentos, de Lugares y de Bienes Históricos (CNMLBH)",s/d,Nacional,16/8/2002,Decreto,1495,,,
9,2,2000010,Ciudad Autónoma de Buenos Aires,Ciudad Autónoma de Buenos Aires,Casa natal del Gral. Antonio González Balcarce,Balcarce 151/61,-34.60941667,-58.37075,Lugar Histórico,"Comisión Nacional de Monumentos, de Lugares y de Bienes Históricos (CNMLBH)",s/d,Nacional,16/5/1997,Decreto,437,,,
9,2,2000010,Ciudad Autónoma de Buenos Aires,Ciudad Autónoma de Buenos Aires,Casa proyectada por el arquitecto Alejandro Virasoro,Agüero 2038/42,-34.58822222,-58.40247222,Monumento Histórico,"Comisión Nacional de Monumentos, de Lugares y de Bienes Históricos (CNMLBH)",s/d,Nacional,13/8/2002,Decreto,1462,,,
9,2,2000010,Ciudad Autónoma de Buenos Aires,Ciudad Autónoma de Buenos Aires,Casa que habitó Adolfo Alsina,Adolfo Alsina 1169/73,-34.61091667,-58.38291667,Lugar Histórico,"Comisión Nacional de Monumentos, de Lugares y de Bienes Históricos (CNMLBH)",s/d,Nacional,20/3/1979,Decreto,653,,,
9,2,2000010,Ciudad Autónoma de Buenos Aires,Ciudad Autónoma de Buenos Aires,Casa que habitó Domingo F.Sarmiento,Sarmiento 1253,-34.60511111,-58.38447222,Monumento Histórico,"Comisión Nacional de Monumentos, de Lugares y de Bienes Históricos (CNMLBH)",s/d,Nacional,13/5/1948,Decreto,13725,,,
9,2,2000010,Ciudad Autónoma de Buenos Aires,Ciudad Autónoma de Buenos Aires,Casa que habitó el Dr. Alfredo Palacios,Charcas 4741,-34.58105556,-58.42663889,Lugar Histórico,"Comisión Nacional de Monumentos, de Lugares y de Bienes Históricos (CNMLBH)",s/d,Nacional,26/10/1992,Ley,24169,,,
9,2,2000010,Ciudad Autónoma de Buenos Aires,Ciudad Autónoma de Buenos Aires,Casa que habitó el Gral. Bartolomé Mitre (Sede del Museo Mitre),San Martín 336,-34604,-58.37388889,Monumento Histórico,"Comisión Nacional de Monumentos, de Lugares y de Bienes Históricos (CNMLBH)",s/d,Nacional,21/5/1942,Decreto,120412,,,
9,2,2000010,Ciudad Autónoma de Buenos Aires,Ciudad Autónoma de Buenos Aires,Casa que habitó Ricardo Rojas,Charcas 2837,-34.59391667,-58.4065,Monumento Histórico,"Comisión Nacional de Monumentos, de Lugares y de Bienes Históricos (CNMLBH)",s/d,Nacional,29/5/1958,Ley,14437,,,
9,2,2000010,Ciudad Autónoma de Buenos Aires,Ciudad Autónoma de Buenos Aires,"Casa y Capilla de Ejercicios Espirituales y Colegio Nuestra Señora de Belén (actual Academia Superior de Estudios Penitenciarios y Museo Penitenciario ""Antonio Ballvé""",Humberto I 378 - ( Servicio Penitenciario Federal : Av San Juan 369),-34.62163889,-58.37091667,Monumento Histórico,"Comisión Nacional de Monumentos, de Lugares y de Bienes Históricos (CNMLBH)",s/d,Nacional,26/5/1982,Decreto,1034,,,
9,2,2000010,Ciudad Autónoma de Buenos Aires,Ciudad Autónoma de Buenos Aires,Casal de Catalunya,"Chacabuco Nros. 855, 863, 869 y 875",-34.61805556,-58.37597222,Monumento Histórico,"Comisión Nacional de Monumentos, de Lugares y de Bienes Históricos (CNMLBH)",s/d,Nacional,22/7/2014,Decreto,1163,,,
9,2,2000010,Ciudad Autónoma de Buenos Aires,Ciudad Autónoma de Buenos Aires,Catedral Anglicana de San Juan Bautista,25 de Mayo 276/82,-34.60455556,-58.37105556,Monumento Histórico Artístico,"Comisión Nacional de Monumentos, de Lugares y de Bienes Históricos (CNMLBH)",s/d,Nacional,29/12/2000,Decreto,1296,,,
9,2,2000010,Ciudad Autónoma de Buenos Aires,Ciudad Autónoma de Buenos Aires,Catedral de la Ciudad de Buenos Aires,Rivadavia y San Martín,-34.60766667,-58.37338889,Monumento Histórico,"Comisión Nacional de Monumentos, de Lugares y de Bienes Históricos (CNMLBH)",s/d,Nacional,21/5/1942,Decreto,120412,,,
