cod_loc,id_prov,id_depar,observaciones,categoria,provincia,departamento,localidad,nombre,domicilio,piso,CP,cod_area,telefono,Mail,Web,Latitud,Longitud,TipoLatitudLongitud,Fuente,IDSINCA,Tipo_gestion,año_inicio,Capacidad
6357110,6,6357,,Salas de Teatro,Buenos Aires,General Pueyrredon,Mar del Plata,Teatro Municipal Colón,Hipólito Yrigoyen 1665,s/d,7600,223,4996555,teatrocolon@mardelplata.gov.ar,www.mardelplata.gob.ar/teatromunicipalcol%C3%B3nmensual2015,-37.99765100,-57.54963600,Precisa,Alternativa Teatral / Relevamiento 2017,120004,Público,1882,520
6049020,6,6049,,Salas de Teatro,Buenos Aires,Azul,Azul,Español Azul,San Martin 427,s/d,7300,2281,430410,teatroespanoldeazul@ceal.com.ar,www.teatroespanoldeazul.com,-36.77785500,-59.86378900,Precisa,Argentores / Relevamiento 2017,120012,Privado,1897,500
6105060,6,6105,,Salas de Teatro,Buenos Aires,Bolívar,Bolivar,Teatro Coliseo Español,San Martin 961,s/d,6550,2314,424468,turismo@bolivar.gob.ar,s/d,-36.22854000,-61.11646700,Precisa,Argentores / Relevamiento 2017,120013,Privado,1901,0
6056010,6,6056,,Salas de Teatro,Buenos Aires,Bahía Blanca,Bahía Blanca,Don Bosco Teatro,Rondeau 117,s/d,8000,291,4556498,sociedaddelespectaculo@danielvolpe.com,www.teatrodonbosco.com,-38.71848500,-62.27080600,Precisa,AADET ,120021,Privado,1907,1302
6763050,6,6763,,Salas de Teatro,Buenos Aires,San Nicolás de los Arroyos,San Nicolás de los Arroyos,Teatro Municipal R. de Aguilar,Nacion  346,s/d,2900,s/d,s/d,s/d,www.sannicolas.gov.ar/index.php?b=turismo&&bb=teatro,-33.33418100,-60.22038600,Precisa,Argentores / Relevamiento 2017,120026,Público,1908,800
6609080,6,6609,,Salas de Teatro,Buenos Aires,Pehuajó,Pehuajó,Teatro Español,Alsina 479,s/d,6450,2396,402209,sociedadespanolapehuajo@hotmail.com,s/d,-35.81100100,-61.89567600,Precisa,Argentores / Relevamiento 2017,120034,Privado,1910,0
6427010,6,6427,,Salas de Teatro,Buenos Aires,La Matanza,La Matanza,Fundación Armstrong,Avenida Lasalle 2650,s/d,1759,220,2425100,nicolaschamorro@hotmail.com,www.fundacionarmstrong.org.ar,-34.75754000,-58.66013000,Precisa,Programa Puntos de Cultura / Relevamiento,120039,Privado,1913,300
6056010,6,6056,,Salas de Teatro,Buenos Aires,Bahía Blanca,Bahía Blanca,Teatro Municipal de Bahía Blanca,Alsina 425,s/d,8000,291,4563973,teatrom@hotmail.com,www.bahiablanca.gov.ar/teatro/,-38.71487200,-62.26038300,Precisa,Alternativa Teatral / Relevamiento 2017,120042,Público,1913,850
6238010,6,6238,,Salas de Teatro,Buenos Aires,Dolores,Dolores,Unión Dolores,Castelli 250,s/d,7100,s/d,s/d,s/d,www.dolores.gob.ar/ciudad/teatro-unione/,-36.31731300,-57.67496400,Precisa,Argentores / Relevamiento 2017,120043,Público,1913,450
6490010,6,6490,,Salas de Teatro,Buenos Aires,Lomas de Zamora,Lomas de Zamora,Teatro Maipú,Maipú 380,s/d,1832,11,42020843,info@teatromaipu.com.ar,https://centroculturalmaipu.com.ar,-34.74363100,-58.39042900,Precisa,Secretaria de Cultura Lomas de Zamora / Relevamiento 2017,120060,Privado,1926,0
6882050,6,6882,,Salas de Teatro,Buenos Aires,Zarate,Zarate,Teatro Coliseo,19 de Marzo 314,s/d,2800,3487,422762,s/d,s/d,-34.09769100,-59.02205700,Precisa,Argentores / Relevamiento 2017,120064,Privado,1928,0
6581040,6,6581,,Salas de Teatro,Buenos Aires,Necochea,Necochea,Cine Teatro Paris,Avenida 59 2868,s/d,7630,2262,422273,cineteatroparis@gmail.com,www.cineteatroparis.com.ar,-38.55228500,-58.74212500,Precisa,Argentores / AADET / Relevamiento 2017,120068,Público,1931,923
6490010,6,6490,,Salas de Teatro,Buenos Aires,Lomas de Zamora,Lomas de Zamora,Teatro Coliseo Lomas,España 55,P.B.,1832,11,42441537,danielguzzetti@plateauno.com,www.plateauno.com,-34.76144300,-58.39971400,Precisa,Secretaria de Cultura Lomas de Zamora / Relevamiento 2017,120073,Privado,1932,1148
6035010,6,6035,,Salas de Teatro,Buenos Aires,Avellaneda,Avellaneda,Asociación Gente de Arte de Avellaneda,Alsina 234,s/d,1870,11,42017663,info@gentedearte.org.ar,www.gentedearte.org.ar,-34.66518000,-58.36753000,Precisa,Geocultura-UNDAV ,120089,Privado,1941,100
6441030,6,6441,,Salas de Teatro,Buenos Aires,La Plata,La Plata,La Lechuza,Calle 58 n° 757,s/d,s/d,221,4721612,carnerolaura@gmail.com,www.lalechuzateatro.blogspot.com.ar,-34.92209000,-57.94714000,Precisa,Plan Podesta 2020 / Relevamiento SINCA,120104,Privado,1957,0
6056010,6,6056,,Salas de Teatro,Buenos Aires,Bahía Blanca,Bahía Blanca,Escuela de Danza Clásica de Bahía Blanca,Brown 128,2°,8000,291,4531911,escueladedanzabahiablanca@hotmail.com,www.ecbblanca.bue.infd.edu.ar,-38.72094219,-62.26681286,Precisa,Relevamiento 2017,120108,Público,1958,0
6441030,6,6441,,Salas de Teatro,Buenos Aires,La Plata,La Plata,Sala Armando Discepolo // La Comedia,Calle 12 1473,s/d,1900,221,4579925,prensacomedia@gmail.com,www.gba.gob.ar/cultura,-34.92773700,-57.94389500,Precisa,Argentores / Relevamiento 2017,120109,Público,1958,2265
6609090,6,6609,,Salas de Teatro,Buenos Aires,Pehuajó,San Bernardo,Teatro Auditorio Asociación de Fomento San Bernardo,La Rioja 2740,s/d,3701,2257,460297,s/d,s/d,-36.68722400,-56.68035600,Precisa,Alternativa Teatral / Relevamiento 2017,120110,Privado,1958,407
6224010,6,6224,,Salas de Teatro,Buenos Aires,Chivilcoy,Chivilcoy,El Chasqui  Chivilcoy,Gral. Rodriguez 70,s/d,6620,2346,423445,teatroelchasqui@outlook.es,s/d,-34.89426000,-60.17470000,Precisa,Plan Podesta 2020 / Relevamiento SINCA,120111,Privado,1959,0
6791050,6,6791,,Salas de Teatro,Buenos Aires,Tandil,Tandil,Anfiteatro Martin Fierro,Juldain y Avenida Dorrego,s/d,7000,s/d,s/d,s/d,www.tandil.com.ar/Turismo/107892/El-Anfiteatro-Martin-Fierro.html,-37.33903000,-59.13956100,Precisa,Argentores / Relevamiento 2017,120121,Público,1963,5000
6882050,6,6882,,Salas de Teatro,Buenos Aires,Zarate,Zarate,Circo P. de Cultura Sala Vicente Primavera,Justa Lima de Atucha 667,P.B.,2800,3487,422696,cpcultura@hotmail.com,s/d,-34.10077021,-59.02115364,Precisa,Relevamiento 2017,120129,Privado,1967,280
6413050,6,6413,,Salas de Teatro,Buenos Aires,Junin,Junin,La Rancheria,Chacabuco 40,s/d,6000,236,4631624,teatrolarancheria@junin.gob.ar,s/d,-34.59723000,-60.94277800,Precisa,Argentores / Relevamiento 2017,120138,Público,1971,440
6357110,6,6357,,Salas de Teatro,Buenos Aires,General Pueyrredon,Mar del Plata,Enrique Carreras,Entre Ríos 1828,s/d,7600,223,4942753,s/d,s/d,-38.00248700,-57.54361000,Precisa,Alternativa Teatral / Relevamiento 2017,120143,Privado,1974,400
6357110,6,6357,,Salas de Teatro,Buenos Aires,General Pueyrredon,Mar del Plata,Teatro Tronador,Santiago del Estero 1744,s/d,7600,223,4860800,info@teatrotronador.com.ar,www.teatrotronador.com.ar,-38.00031000,-57.54611400,Precisa,Argentores / AADET / Relevamiento 2017,120156,Privado,1979,0
6371010,6,6371,,Salas de Teatro,Buenos Aires,General San Martín,General San Martin,Asociación De Mujeres La Colmena,Emilio Mitre 284,s/d,1655,11,47667535,acolmenamuj@yahoo.com.ar,www.lacolmena.org.ar ,-34.58037000,-58.53478000,Precisa,Programa Puntos de Cultura / Relevamiento 2017,120161,Privado,1984,100
6568010,6,6568,,Salas de Teatro,Buenos Aires,Moron,Morón,Teatro El Baldio,Avenida Boulevard Finca 6577,s/d,1684,11,47587804,info@elbaldio.org,www.elbaldio.org/index.php?option=com_content&view=article&id=34&Itemid=107,-34.59795600,-58.59495800,Precisa,Plan Podesta 2020 / Relevamiento SINCA,120170,Privado,1985,0
6441030,6,6441,,Salas de Teatro,Buenos Aires,La Plata,La Plata,Asociación amigos del taller de Teatro de la Universidad Nacional de la Plata,Calle 10 nº 1076,s/d,1900,221,4232283,amigosdeteatrounlp@datamarkets.com,www.teatrounlp.com.ar,-34.91986200,-57.94985100,Precisa,Plan Podesta 2020 / Relevamiento SINCA,120171,Público,1986,80
6441030,6,6441,,Salas de Teatro,Buenos Aires,La Plata,La Plata,Sala 420,Calle 42 n°571,s/d,s/d,221,4893636,produccionsala420@gmail.com,www.sala420.com,-34.90841000,-57.95699000,Precisa,INT / Relevamiento 2017,120178,Privado,1988,0
6357110,6,6357,,Salas de Teatro,Buenos Aires,General Pueyrredon,Mar del Plata,Cuatro Elementos Espacio Teatral,Alberti 2746,s/d,7600,223,49534798,josecanejo@yahoo.com.ar,www.espaciocuatroelementos.com,-38.00603369,-57.55431667,Precisa,Plan Podesta 2020 / Relevamiento SINCA,120198,Privado,1991,150
6441030,6,6441,,Salas de Teatro,Buenos Aires,La Plata,La Plata,Teatro La Nonna,Calle 47 n°395,s/d,1900,221,4275555,leoringerargentina@yahoo.com.ar,www.teatrolanonna.com.ar,-34.89965800,-57.93869600,Precisa,Plan Podesta 2020 / Relevamiento SINCA,120202,Privado,1991,200
6861010,6,6861,,Salas de Teatro,Buenos Aires,Vicente Lopez,Vicente Lopez,Teatro de Repertorio del Norte,Carlos Francisco Melo 1756,s/d,s/d,11,47978515,trn@trn.com.ar,www.trn.com.ar,-34.53100700,-58.48326400,Precisa,Plan Podesta 2020 / Relevamiento SINCA,120208,Privado,1992,100
6490010,6,6490,,Salas de Teatro,Buenos Aires,Lomas de Zamora,Lomas de Zamora,Asociación Teatro de las Nobles Bestias,14 de Julio 142,s/d,1832,11,42440813,noblesbestiasteatro@gmail.com,s/d,-34.77448300,-58.39407900,Precisa,Plan Podesta 2020 / Relevamiento SINCA,120218,Privado,1994,150
6441030,6,6441,,Salas de Teatro,Buenos Aires,La Plata,La Plata,Espacio Arte Vivo,Calle 58 nº 461,s/d,s/d,221,4216155,espacioart@yahoo.com.ar,s/d,-34.91677400,-57.94113500,Precisa,Plan Podesta 2020 / Relevamiento SINCA,120220,Privado,1994,85
6568010,6,6568,,Salas de Teatro,Buenos Aires,Moron,Morón,El Errante Club de Teatro,Avenida Rosales 1345,s/d,1706,11,44436298,errante-teatro@sinectis.com.ar,s/d,-34.62570600,-58.59381400,Precisa,INT / Relevamiento 2017,120225,Privado,1995,60
6826050,6,6826,,Salas de Teatro,Buenos Aires,Trenque Lauquen,Trenque Lauquen,Cearte - Centro del Arte Teatral,Saenz Peña 250,s/d,6400,2392,619716,s/d,s/d,-35.96748800,-62.72930500,Precisa,INT / Relevamiento 2017,120229,Privado,1996,0
6357110,6,6357,,Salas de Teatro,Buenos Aires,General Pueyrredon,Mar del Plata,El Galpón de las Artes,Jujuy 2755,s/d,7600,223,4964030,teatro@galponartes.com.ar,www.galponartes.com,-37.98003700,-57.55368400,Precisa,INT / Relevamiento 2017,120233,Privado,1996,140
6357110,6,6357,,Salas de Teatro,Buenos Aires,General Pueyrredon,Mar del Plata,El Séptimo Fuego,Bolívar 3675,s/d,7600,223,4959572,septimofuego@speedy.com.ar,s/d,-37.99710300,-57.56030900,Precisa,Plan Podesta 2020 / Relevamiento SINCA,120247,Privado,1997,100
6224010,6,6224,,Salas de Teatro,Buenos Aires,Chivilcoy,Chivilcoy,Sala grupo teatral Trac,Humberto Primo 48,s/d,6620,2346,656055,grupotrac@gmail.com,www.grupotrac.blogspot.com.ar,-34.88878000,-60.01283000,Precisa,Plan Podesta 2020 / Relevamiento SINCA,120251,Privado,1997,0
6868020,6,6868,,Salas de Teatro,Buenos Aires,Villa Gesell,Villa Gesell,La Casa de los Artistas,Av.a 5 y 127 (bis),s/d,7165,2255,462966,teatroaccion@gesell.com.ar,s/d,-37.27571600,-56.98686500,Precisa,Plan Podesta 2020 / Relevamiento SINCA,120255,Privado,1998,0
6791050,6,6791,,Salas de Teatro,Buenos Aires,Tandil,Tandil,Teatro La Fábrica,Pinto 367,s/d,7000,2293,442756,teatrolafabrica@gmail.com,www.lafabricatandil.blogspot.com.ar,-37.32874300,-59.13902900,Precisa,Alternativa Teatral / Relevamiento 2017,120259,Privado,1998,0
6427010,6,6427,,Salas de Teatro,Buenos Aires,La Matanza,La Matanza,Centro Cultural y Teatro Enrique Pinti,Dr. Ignacio Arieta 2715,s/d,3040,11,44847261,teatroepinti@gmail.com,www.teatroepinti.blogspot.com,-34.67519400,-58.56519200,Precisa,Alternativa Teatral / Relevamiento 2017,120298,Privado,2002,0
6441030,6,6441,,Salas de Teatro,Buenos Aires,La Plata,La Plata,Grupo Los Okupas del Anden,Calle 71 y Calle 17,s/d,1900,221,4210534,okupasdelanden@yahoo.com.ar,www.losokupasdelanden.blogspot.com.ar,-34.93963800,-57.93949000,Precisa,Red de Teatro Comunitario / Relevamiento 2017,120313,Privado,2003,0
6441030,6,6441,,Salas de Teatro,Buenos Aires,La Plata,La Plata,Teatro de Cámara Lumen Artis,Diagonal Urquiza Nº 347,s/d,s/d,s/d,s/d,s/d,s/d,-34.86645000,-58.05232000,Precisa,Relevamiento 2017,120321,Privado,2003,160
6441030,6,6441,,Salas de Teatro,Buenos Aires,La Plata,La Plata,Teatro Estudio,Calle 3 nº 386,s/d,1900,221,4234366,teatroestudiodelasartes@hotmail.com,www.teatroestudio.com.ar,-34.90334100,-57.95603100,Precisa,Plan Podesta 2020 / Relevamiento SINCA,120323,Privado,2003,80
6427010,6,6427,,Salas de Teatro,Buenos Aires,La Matanza,La Matanza,Teatro La Cordura del Copete,Arieta  3694,s/d,3040,11,44417668,lacorduradelcopete@yahoo.com.ar,www.lacorduradelcopete.blogspot.com,-34.68353600,-58.55373100,Precisa,Alternativa Teatral / Relevamiento 2017,120324,Privado,2003,0
6280040,6,6280,,Salas de Teatro,Buenos Aires,General Alvarado,Miramar,Teatro Municipal Abel Santa Cruz,Avenida 9 nº 1250,s/d,7607,2291,420778,cultura@mga.gov.ar,www.miramarense.com.ar/lugar-en-miramar.asp?paseo=Teatro-Municipal-Abel-Santa-Cruz&codigo=21,-38.24678400,-57.80197100,Precisa,Relevamiento 2017,120325,Público,2003,195
6427010,6,6427,,Salas de Teatro,Buenos Aires,La Matanza,La Matanza,Grupo de Teatro Desparamos de Ramos Mejia,Rivadavia y Alte. Brown,s/d,s/d,11,46583488,prensadesparamos@yahoo.com.ar,s/d,-34.64000600,-58.55713600,Precisa,Red de Teatro Comunitario / Relevamiento 2017,120334,Privado,2004,0
6658010,6,6658,,Salas de Teatro,Buenos Aires,Quilmes,Quilmes,Multicultural Don Bosco,Belgrano 280,s/d,1876,11,42520046,multiculturaldb@yahoo.com.ar,www.multiculturaldb.blogspot.com,-34.71260000,-58.28012000,Precisa,Alternativa Teatral / Relevamiento 2017,120341,Privado,2005,0
6441030,6,6441,,Salas de Teatro,Buenos Aires,La Plata,La Plata,Espacio 44 - Laboratorio Crativo,Av. 44 nº 496,s/d,1900,221,5907600,danielgismondi@yahoo.com.ar,www.espacio44.com.ar,-34.90875700,-57.95310700,Precisa,Plan Podesta 2020 / Relevamiento SINCA,120351,Privado,2006,50
6049020,6,6049,,Salas de Teatro,Buenos Aires,Azul,Azul,Espacio Cultural La Criba,Bogliano 628,P.B.,7300,2281,536759,lacriba@gmail.com,www.espacioculturallacriba.blogspot.com,-36.77636000,-59.85552000,Precisa,Plan Podesta 2020 / Relevamiento SINCA,120352,Privado,2006,60
6861010,6,6861,,Salas de Teatro,Buenos Aires,Vicente Lopez,Vicente Lopez,Teatro Bertolt,Pedro Goyena 3231,s/d,1636,11,47116945,teatrobertolt@yahoo.com.ar,www.teatrobertolt.com.ar,-34.51340722,-58.50696790,Precisa,Alternativa Teatral / Relevamiento 2017,120361,Privado,2006,0
6427010,6,6427,,Salas de Teatro,Buenos Aires,La Matanza,La Matanza,Teatro UOM,Av. Illia 2340,s/d,1754,11,46514445,teatrouom@gmail.com,www.uomlamatanza.org.ar,-34.67484100,-58.56301200,Precisa,Alternativa Teatral / Relevamiento 2017,120362,Privado,2006,390
6260010,6,6260,,Salas de Teatro,Buenos Aires,Esteban Echeverría,Monte Grande,Casa Carlos Fuentealba,Florentino Ameghino 176,s/d,1832,s/d,s/d,s/d,s/d,-34.81612000,-58.46536000,Precisa,Secretaria de Cultura Lomas de Zamora / Relevamiento 2017,120365,Privado,2007,0
6805010,6,6805,,Salas de Teatro,Buenos Aires,Tigre,Tigre,Circo de las Artes,Av. San Martin 151,s/d,1648,11,47313578,anahepner@circodelasartes.com,www.circodelasartes.com,-34.42107000,-58.58303000,Precisa,Plan Podesta 2020 / Relevamiento SINCA,120382,Privado,2009,140
6756010,6,6756,,Salas de Teatro,Buenos Aires,San Isidro,Martínez,Estudio Awalim,Juncal 73,s/d,s/d,s/d,s/d,estudioawalimdanzas@hotmail.com,s/d,-34.48727000,-58.50349000,Precisa,Alternativa Teatral / Relevamiento 2017,120385,Privado,2008,0
6760010,6,6760,,Salas de Teatro,Buenos Aires,San Miguel,San Miguel,Teatro La Herrería,Sarmiento 2000 ,s/d,1663,11,46671640,teatro.laherreria@gmail.com,www.herreriateatro.blogspot.com,-34.53919000,-58.71779000,Precisa,Plan Podesta 2020 / Relevamiento SINCA,120388,Privado,2008,0
6357110,6,6357,,Salas de Teatro,Buenos Aires,General Pueyrredon,Mar del Plata,Liberart Espacio Cultural,Moreno 2742,s/d,7600,223,4962823,liberartespaciocultural@hotmail.com,,-38.00120000,-57.55031000,Precisa,Plan Podesta 2020 / Relevamiento SINCA,120390,Privado,2008,0
6371010,6,6371,,Salas de Teatro,Buenos Aires,General San Martín,General San Martin,Las Musas Club de Arte,América 4175,s/d,1651,11,47389444,lasmusasclubdearte@hotmail.com,www.lasmusasclubdearte.blogspot.com.ar,-34.55613000,-58.55175000,Precisa,Alternativa Teatral / Relevamiento 2017,120411,Privado,2009,0
6805010,6,6805,,Salas de Teatro,Buenos Aires,Tigre,Tigre,Sala Aparecidas,Córdoba 625,s/d,1648,11,47263995,alerumberger@yahoo.com.ar,www.salaaparecidas.com.ar,-34.45417170,-58.63461170,Precisa,Alternativa Teatral / Relevamiento 2017,120413,Privado,2009,0
6840010,6,6840,,Salas de Teatro,Buenos Aires,Tres de Febrero,Tres de Febrero,Swing Estudio de Danza y Arte Escénico,Alianza  250 ,s/d,s/d,11,46535016,studioswing@hotmail.com,s/d,-34.64319000,-58.53793000,Aproximada,Alternativa Teatral / Relevamiento 2017,120434,Privado,2010,0
6511020,6,6511,,Salas de Teatro,Buenos Aires,Maipú,Maipú,Cine Teatro Sociedad Italiana ,Rivadavia 555,s/d,5515,2268,421649,italisoc@yahoo.com.ar,s/d,-36.86167990,-57.88260310,Precisa,Alternativa Teatral / Relevamiento 2017,120445,Privado,2011,0
6441030,6,6441,,Salas de Teatro,Buenos Aires,La Plata,La Plata,El Bombin Teatro,Calle 59 n° 886,s/d,1900,221,4212920,el-bombin@hotmail.com,s/d,-34.92538500,-57.94855900,Precisa,Alternativa Teatral / Relevamiento 2017,120446,Privado,2011,0
6756010,6,6756,,Salas de Teatro,Buenos Aires,San Isidro,Martínez,Teatro de la Media Legua,Aristóbulo del Valle 199,s/d,1640,11,30258511,teatromedialegua@gmail.com,www.medialeguateatro.com.ar,-34.48650500,-58.49988700,Precisa,Alternativa Teatral / Relevamiento 2017,120461,Privado,2011,130
6805010,6,6805,,Salas de Teatro,Buenos Aires,Tigre,Tigre,Teatro Nini Marshall,Peru 1401,s/d,1648,11,40026002,info@teatroninimarshall.com.ar,www.teatroninimarshall.com.ar,-34.42010400,-58.57435600,Precisa,AADET ,120467,Privado,2011,906
6490010,6,6490,,Salas de Teatro,Buenos Aires,Lomas de Zamora,Lomas de Zamora,Espacio Asterisco,Gral. Levalle 1293,s/d,1832,11,35326266,asterisco.espacio@gmail.com,s/d,-34.74667000,-58.38618000,Precisa,Secretaria de Cultura Lomas de Zamora / Relevamiento 2017,120480,Privado,2012,0
6091010,6,6091,,Salas de Teatro,Buenos Aires,Berazategui,Berazategui,Indigo,Calle 144 nº 1536,s/d,1884,11,64642768,indigoesteatro@gmail.com,s/d,-34.76524000,-58.21228000,Precisa,Plan Podesta 2020 / Fondo Desarrollar 2020/Relevamiento SINCA,120485,Privado,2012,0
6756010,6,6756,,Salas de Teatro,Buenos Aires,San Isidro,San Isidro,Piropearte Espacio de Arte,Liniers 365,s/d,1642,11,47070169,piropiarte@gmail.com,http://www.piropiarte.com.ar/?fbclid=IwAR1g9zCBV-jQEjAwlxMf8OdSa4ex8sAcnTvutuL0ypTCZR8DtVuNSm12Om0,-34.46797000,-58.52427000,Precisa,Fondo Desarrollar 2020,120494,Privado,2012,0
6490010,6,6490,,Salas de Teatro,Buenos Aires,Lomas de Zamora,Lomas de Zamora,Teatro del Municipio de Lomas de Zamora,Manuel Castro 262,s/d,1832,11,20684747,culturamlz@gmail.com ,www.lomasdezamora.gov.ar,-34.75708729,-58.40345394,Precisa,Secretaria de Cultura Lomas de Zamora / Relevamiento 2017,120496,Público,2012,430
6035010,6,6035,,Salas de Teatro,Buenos Aires,Avellaneda,Avellaneda,Asociación Mutual de Mujeres Afro de Avellaneda y zona sur,Colón entre Berutti y España,s/d,1870,11,20596297,viviparody@yahoo.com.ar,s/d,-34.66340000,-58.37125700,Aproximada,Programa Puntos de Cultura / Relevamiento,120500,Privado,2013,500
6357110,6,6357,,Salas de Teatro,Buenos Aires,General Pueyrredon,Mar del Plata,Circo La Audacia,Roca 3558,P.B.,7600,223,5134910,circolaaudacia@gmail.com,www.laaudacia.com.ar,-38.00730900,-57.56691400,Precisa,Relevamiento 2017,120505,Privado,2013,400
6490010,6,6490,,Salas de Teatro,Buenos Aires,Lomas de Zamora,Lomas de Zamora,"El Gutiérrez, Casa Taller",Aráoz 681,s/d,1832,11,39233674,elgutierrezcasataller@yahoo.com.ar,www.elgutierrez.com.ar,-34.73525000,-58.40441000,Precisa,Secretaria de Cultura Lomas de Zamora / Relevamiento 2017,120537,Privado,2014,0
6371010,6,6371,,Salas de Teatro,Buenos Aires,General San Martín,General San Martin,Entelar Espacio,Marengo 3294,s/d,1650,11,47382299,entelarespacio@gmail.com,s/d,-34.56052348,-58.54235185,Precisa,Alternativa Teatral / Relevamiento 2017,120539,Privado,2014,0
6035010,6,6035,,Salas de Teatro,Buenos Aires,Avellaneda,Avellaneda,Teatro de la Cuadra,French 84,s/d,1870,11,42299068,juan@teatrodelacuadra.com.ar,www.teatrodelacuadra.com.ar,-34.66032000,-58.36565000,Precisa,INT / Relevamiento 2017,120555,Privado,2014,0
6410010,6,6410,,Salas de Teatro,Buenos Aires,Ituzaingó,Ituzaingo,Mandala Espacio de Arte,M. R. Fragio 375,s/d,1714,11,46246613,mandalamoviliza@gmail.com,s/d,-34.65697000,-58.67023000,Precisa,Alternativa Teatral / Relevamiento 2017,120570,Privado,2015,0
6413050,6,6413,,Salas de Teatro,Buenos Aires,Junin,Junin,Sala Teatro de Títeres Cubana Argentina,Lavalle 1511 ,1°,6000,236,4355159,lasyaquis@gmail.com,s/d,-34.57582000,-60.96490000,Precisa,Plan Podesta 2020 / Relevamiento SINCA,120588,Privado,2017,80
6427010,6,6427,,Salas de Teatro,Buenos Aires,La Matanza,La Matanza,Aluperan Artes de Circo,Viamonte 160,s/d,1704,s/d,s/d,aluperan@live.com,s/d,-34.64415221,-58.55825928,Precisa,Alternativa Teatral / Relevamiento 2017,120598,Privado,0,0
6581040,6,6581,,Salas de Teatro,Buenos Aires,Necochea,Necochea,Anfiteatro Del Parque,Parque Miguel Lillo,s/d,7630,s/d,s/d,s/d,s/d,-38.58777900,-58.75287500,Precisa,Argentores / Relevamiento 2017,120605,Público,0,0
6441030,6,6441,,Salas de Teatro,Buenos Aires,La Plata,La Plata,Anfiteatro Martin Fierro (Teatro del Lago),Nicolás Cúccolo Paseo del Bosque,s/d,1900,221,4212660,s/d,www.ic.gba.gov.ar/comedia/salas_espacios.htm,-34.91092000,-57.93697000,Precisa,Argentores / Relevamiento 2017,120609,Público,0,2065
6553020,6,6553,,Salas de Teatro,Buenos Aires,Monte Hermoso,Monte Hermoso,Anfiteatro Peatonal Dorrego,Peatonal Dorrego Y Costanera,s/d,8153,s/d,s/d,s/d,s/d,-38.98885200,-61.28790800,Precisa,Argentores / Relevamiento 2017,120617,Público,0,0
6056010,6,6056,,Salas de Teatro,Buenos Aires,Bahía Blanca,Bahía Blanca,Asociación Teatristas del Sur,Garibaldi 310,s/d,8000,291,4636572,s/d,www.teatristasdelsur.blogspot.com.ar,-38.72884400,-62.24704200,Precisa,Argentores / Relevamiento 2017,120634,Privado,0,0
6469080,6,6469,,Salas de Teatro,Buenos Aires,Lincoln,Lincoln,Ateneo Cultural Municipal,Drago  950,s/d,6070,s/d,s/d,s/d,s/d,-34.87035700,-61.52436200,Precisa,Argentores / Relevamiento 2017,120639,Público,0,0
6420040,6,6420,,Salas de Teatro,Buenos Aires,La Costa,Santa Teresita,Atlantico Santa Teresita,Calle 41 258,s/d,7107,2246,528800,s/d,s/d,-36.54420400,-56.69160800,Precisa,Argentores / AADET / Relevamiento 2017,120640,Privado,0,0
6357110,6,6357,,Salas de Teatro,Buenos Aires,General Pueyrredon,Mar del Plata,Atlas  Mar del Plata,Avenida Luro y Corrientes,s/d,7600,223,4943240,redaccion@multiteatro.com.ar,www.multiteatro.com.ar,-38.00016200,-57.54308300,Precisa,Relevamiento 2017,120641,Privado,0,0
6035010,6,6035,,Salas de Teatro,Buenos Aires,Avellaneda,Avellaneda,Auditorio Sede Piñeyro Universidad Nacional de Avellaneda,Mario Bravo e Isleta ,s/d,1870,s/d,s/d,s/d,www.undav.edu.ar,-34.66852000,-58.39811000,Precisa,Alternativa Teatral / Relevamiento 2017,120671,Público,0,0
6490010,6,6490,,Salas de Teatro,Buenos Aires,Lomas de Zamora,Lomas de Zamora,Auditorio Sur,Avenida Meeks 1080,s/d,1832,11,42924494,info@auditoriosur.com.ar,www.auditoriosur.com.ar,-34.77436000,-58.39744000,Precisa,Secretaria de Cultura Lomas de Zamora / Relevamiento 2017,120672,Privado,0,0
6568010,6,6568,,Salas de Teatro,Buenos Aires,Moron,Morón,Auditorio Universidad de Morón,Cabildo 134,s/d,1708,11,56272000,comunicaciones@unimoron.edu.ar,www.teatroum.com,-34.64713700,-58.61976800,Precisa,Argentores / Relevamiento 2017,120673,Privado,0,393
6658010,6,6658,,Salas de Teatro,Buenos Aires,Quilmes,Quilmes,Biblioteca de la Universidad Nacional de Quilmes,Roque Sáenz Peña 352,s/d,1876,s/d,s/d,s/d,s/d,-34.70624985,-58.27838081,Precisa,Alternativa Teatral / Relevamiento 2017,120679,Público,0,0
6371010,6,6371,,Salas de Teatro,Buenos Aires,General San Martín,General San Martin,C.U.V.B. Centro Universitario,Bv. Ballester 5041,s/d,1651,s/d,s/d,s/d,s/d,-34.54657000,-58.55413000,Precisa,Alternativa Teatral / Relevamiento 2017,120686,Privado,0,0
6672010,6,6672,,Salas de Teatro,Buenos Aires,Rauch,Rauch,Candilejas,Sarmiento 53,s/d,7203,249,4509507,silvinaordoqui@hotmail.com,s/d,-36.77781532,-59.08712447,Precisa,INT / Relevamiento 2017,120691,Privado,0,237
6756010,6,6756,,Salas de Teatro,Buenos Aires,San Isidro,Acassuso,Casa Arenga,Manzone 851,s/d,1640,11,47929804,arenga.ppt@gmail.com,www.arenga.com.ar,-34.47963000,-58.50463000,Precisa,Alternativa Teatral / Relevamiento 2017,120698,Privado,0,0
6658010,6,6658,,Salas de Teatro,Buenos Aires,Quilmes,Quilmes,Casa de Arte Doña Rosa,Colón 279,s/d,1876,11,42247270,s/d,www.casadeartedr.blogspot.com,-34.71818000,-58.25809000,Precisa,Alternativa Teatral / Relevamiento 2017,120703,Privado,0,0
6756010,6,6756,,Salas de Teatro,Buenos Aires,San Isidro,Acassuso,Casa de Cultura Acassuso,Perú 167,s/d,1640,11,45803111,s/d,www.sanisidrocultura.org,-34.47959901,-58.50524703,Precisa,Relevamiento 2017,120706,Público,0,0
6756010,6,6756,,Salas de Teatro,Buenos Aires,San Isidro,San Isidro,Casa de Cultura de Villa Adelina,Avenida de Mayo 964,s/d,s/d,11,45137893,s/d,www.sanisidrocultura.org,-34.51677000,-58.54306000,Precisa,Alternativa Teatral / Relevamiento 2017,120707,Público,0,0
6756010,6,6756,,Salas de Teatro,Buenos Aires,San Isidro,San Isidro,Casa de Cultura San Isidro Centro,Avenida Centenario 77,s/d,1642,11,45123057,s/d,www.sanisidrocultura.org,-34.47365000,-58.51300000,Precisa,Relevamiento 2017,120708,Público,0,0
6490010,6,6490,,Salas de Teatro,Buenos Aires,Lomas de Zamora,Lomas de Zamora,Casa de Cultura Temperley,Suárez 236,s/d,1832,11,42441631,s/d,s/d,-34.77307000,-58.40288000,Precisa,Secretaria de Cultura Lomas de Zamora / Relevamiento 2017,120709,Público,0,0
6868020,6,6868,,Salas de Teatro,Buenos Aires,Villa Gesell,Villa Gesell,Casa de la Cultura de Villa Gesell,Av.3 nº 874 ,s/d,7165,2255,462513,s/d,www.cultura.gesell.gob.ar,-37.26133400,-56.97222900,Precisa,Alternativa Teatral / Relevamiento 2017,120723,Público,0,0
6056010,6,6056,,Salas de Teatro,Buenos Aires,Bahía Blanca,Bahía Blanca,Casa de La Cultura Universidad Nacional del Sur,Alem 925,s/d,8000,291,4595172,s/d,www.culturayextension.uns.edu.ar,-38.70564800,-62.26737200,Precisa,Argentores / Relevamiento 2017,120727,Público,0,0
6490010,6,6490,,Salas de Teatro,Buenos Aires,Lomas de Zamora,Lomas de Zamora,Casa Puchero,Arenales 1555,s/d,1832,11,20738641,lacasapuchero@gmail.com,s/d,-34.74339000,-58.38719000,Precisa,Secretaria de Cultura Lomas de Zamora / Relevamiento 2017,120741,Privado,0,0
6441030,6,6441,,Salas de Teatro,Buenos Aires,La Plata,La Plata,Casa Teatro El Altillo del Sur,Calle 1 nº 1693,s/d,1900,221,4834975,cpalumbo@netverk.com.ar,s/d,-34.92113400,-57.92746100,Precisa,Plan Podesta 2020 / Relevamiento SINCA,120742,Privado,0,0
6756010,6,6756,,Salas de Teatro,Buenos Aires,San Isidro,San Isidro,Centro Cívico Cultural Beccar,Avenida Centenario 1891,s/d,1643,11,45123160,s/d,www.sanisidrocultura.org,-34.46103000,-58.52716000,Precisa,Relevamiento 2017,120755,Público,0,0
6756010,6,6756,,Salas de Teatro,Buenos Aires,San Isidro,San Isidro,Centro Cívico Cultural Bouloogne,Avenida Avelino Rolón 2315,s/d,s/d,11,45137803,s/d,www.sanisidrocultura.org,-34.51189000,-58.56736000,Precisa,Relevamiento 2017,120756,Público,0,0
6861010,6,6861,,Salas de Teatro,Buenos Aires,Vicente Lopez,Vicente Lopez,Centro Cultural Munro,Av. Velez Sarsfield 4650,s/d,1605,11,45806236,s/d,s/d,-34.53044000,-58.52398000,Precisa,Relevamiento 2017,120813,Público,1994,0
6515010,6,6515,,Salas de Teatro,Buenos Aires,Malvinas Argentinas,Malvinas Argentinas,Centro de las Artes UNGS,Juan María Gutierrez 1150,s/d,1613,11,44514575,c_artes@ungs.edu.ar,www.ungs.edu.ar/ms_centro_cultural/?page_id=134,-34.52213830,-58.70003498,Precisa,Alternativa Teatral / Relevamiento 2017,120846,Público,0,0
6658010,6,6658,,Salas de Teatro,Buenos Aires,Quilmes,Quilmes,Cervantes Quilmes,Rivadavia 125,s/d,1878,11,42531234,s/d,s/d,-34.72368600,-58.26006800,Precisa,Argentores / Relevamiento 2017,120858,Público,0,473
6490010,6,6490,,Salas de Teatro,Buenos Aires,Lomas de Zamora,Lomas de Zamora,Ceta Teatro,Alsina 963,s/d,1828,11,42021929,contacto.cetateatro@gmail.com,s/d,-34.74755000,-58.39428000,Precisa,Secretaria de Cultura Lomas de Zamora / Relevamiento 2017,120859,Privado,0,0
6134030,6,6134,,Salas de Teatro,Buenos Aires,Cañuelas,Cañuelas,Cine Teatro Cañuelas,Lara 824,s/d,1814,s/d,s/d,s/d,s/d,-35.05507071,-58.75840472,Precisa,Argentores / Relevamiento 2017,120864,Privado,0,0
6287010,6,6287,,Salas de Teatro,Buenos Aires,General Alvear,General Alvear,Cine Teatro Español,B. Irigoyen y Lavalle,s/d,7263,s/d,s/d,s/d,s/d,-36.20134000,-60.15972000,Precisa,Argentores / Relevamiento 2017,120868,Público,0,370
6455030,6,6455,,Salas de Teatro,Buenos Aires,Las Flores,Las Flores,Cine Teatro Español,Avenida Carmen 618,s/d,7200,s/d,s/d,s/d,s/d,-36.01754494,-59.10043227,Precisa,Argentores / Relevamiento 2017,120869,Privado,0,0
6392050,6,6392,,Salas de Teatro,Buenos Aires,General Villegas,General Villegas,Cine Teatro Español,Mariano Moreno 6230,s/d,s/d,s/d,s/d,s/d,s/d,-35.03481000,-63.00647000,Precisa,Argentores / Relevamiento 2017,120870,Privado,0,0
6490010,6,6490,,Salas de Teatro,Buenos Aires,Lomas de Zamora,Lomas de Zamora,Cine Teatro Español ,Av. Hipólito Yrigoyen 9070,s/d,1832,11,42430381,lomasteatroespanol@gmail.com,s/d,-34.76074600,-58.40257900,Precisa,Secretaria de Cultura Lomas de Zamora / Relevamiento 2017,120871,Privado,0,700
6210020,6,6210,,Salas de Teatro,Buenos Aires,Chacabuco,Chacabuco,Cine Teatro Español Chacabuco,Pueyrredon 29,s/d,6740,2352,429370,parodiaeg@gmail.com,s/d,-34.64121400,-60.47163500,Precisa,Argentores / Relevamiento 2017,120872,Privado,0,0
6568010,6,6568,,Salas de Teatro,Buenos Aires,Moron,Morón,Cine Teatro Helios,Avenida Boulevard San Martin 3076,s/d,1706,11,2930364,heliospalomar@gmail.com,www.cineteatrohelios.com.ar,-34.60400000,-58.59276000,Precisa,Alternativa Teatral / Relevamiento 2017,120874,Privado,0,200
6203020,6,6203,,Salas de Teatro,Buenos Aires,Coronel Suarez,Coronel Suarez,Cine Teatro Italia,Mitre 1251,s/d,7540,2926,430587,italianasuarez@gmail.com,s/d,-37.45822200,-61.93441100,Precisa,Argentores / Relevamiento 2017,120876,Privado,0,750
6161010,6,6161,,Salas de Teatro,Buenos Aires,Carmen de Areco,Carmen De Areco,Cine Teatro Italia,Saavedra 544,s/d,6725,s/d,s/d,s/d,s/d,-34.37688300,-59.81985800,Precisa,Argentores / Relevamiento 2017,120877,Privado,0,0
6840010,6,6840,,Salas de Teatro,Buenos Aires,Tres de Febrero,Tres de Febrero,Cine Teatro Ocean,Avenida La Plata 3530,s/d,s/d,s/d,s/d,s/d,www.tresdefebrero.gov.ar/tema/cine-teatro-ocean/,-34.60120000,-58.54367000,Precisa,Alternativa Teatral / Relevamiento 2017,120887,Público,0,0
6840010,6,6840,,Salas de Teatro,Buenos Aires,Tres de Febrero,Tres de Febrero,Cine Teatro Paramount,3 de Febrero 2561,s/d,s/d,s/d,s/d,s/d,s/d,-34.60542000,-58.56396000,Precisa,Relevamiento 2017,120889,Público,0,0
6469080,6,6469,,Salas de Teatro,Buenos Aires,Lincoln,Lincoln,Cine Teatro Porta Pia,Mitre 205,s/d,6070,2355,482497,s/d,s/d,-34.86899900,-61.52684000,Precisa,Argentores / Relevamiento 2017,120891,Privado,0,0
6525020,6,6525,,Salas de Teatro,Buenos Aires,Marcos Paz,Marcos Paz,Cine Teatro Roma,Avellaneda 1950,s/d,s/d,220,4776523,s/d,s/d,-34.78125000,-58.83855000,Precisa,Alternativa Teatral / Relevamiento 2017,120895,Público,0,0
6588100,6,6588,,Salas de Teatro,Buenos Aires,9 De Julio,9 De Julio,Cine Teatro Rossini,Libertad 845,s/d,6500,s/d,s/d,s/d,s/d,-35.44555100,-60.88465500,Precisa,Argentores / Relevamiento 2017,120896,Privado,0,539
6147030,6,6147,,Salas de Teatro,Buenos Aires,Carlos Casares,Carlos Casares,Cine Teatro Verdi,San Martin 235,s/d,6530,s/d,s/d,s/d,s/d,-35.62346900,-61.36565600,Precisa,Argentores / Relevamiento 2017,120899,Privado,0,0
6098010,6,6098,,Salas de Teatro,Buenos Aires,Berisso,Berisso,Cine Teatro Victoria,Montevideo 1055,s/d,1923,221,4612033,s/d,s/d,-34.87000100,-57.88128900,Precisa,Argentores / Relevamiento 2017,120900,Privado,0,0
6861010,6,6861,,Salas de Teatro,Buenos Aires,Vicente Lopez,Vicente Lopez,Cine Teatro York,J. B. Alberdi 895,s/d,1636,11,47119213,cineteatroyork@vicentelopez.gov.ar,www.vicentelopez.gov.ar/agenda/york-en-escena,-34.50775300,-58.48500900,Precisa,Alternativa Teatral / Relevamiento 2017,120901,Público,0,0
6490010,6,6490,,Salas de Teatro,Buenos Aires,Lomas de Zamora,Lomas de Zamora,Club de Arte Monociclo,Av. Hipólito Yrigoyen 6926,s/d,1832,11,42421995,s/d,www.monocicloclubdearte.wordpress.com,-34.73567000,-58.39736000,Precisa,Secretaria de Cultura Lomas de Zamora / Relevamiento 2017,120909,Privado,0,0
6791050,6,6791,,Salas de Teatro,Buenos Aires,Tandil,Tandil,Club de Teatro,Chacabuco 517,s/d,7000,2494,448074,clubdeteatrodetandil@gmail.com,s/d,-37.32703100,-59.13642100,Precisa,Plan Podesta 2020 / Relevamiento SINCA,120910,Privado,0,0
6756010,6,6756,,Salas de Teatro,Buenos Aires,San Isidro,Martínez,Club Social Central Norte,Talcahuano 2059,s/d,s/d,11,32215816,s/d,s/d,-34.50014000,-58.52229000,Precisa,Alternativa Teatral / Relevamiento 2017,120913,Privado,0,0
6357110,6,6357,,Salas de Teatro,Buenos Aires,General Pueyrredon,Mar del Plata,Colectivo Cultural A la Vuelta de la Esquina,Alberti 3723,s/d,7600,s/d,s/d,angelesdepaoli@hotmail.com,s/d,-38.00097000,-57.56410000,Precisa,Alternativa Teatral / Relevamiento 2017,120917,Privado,0,100
6427010,6,6427,,Salas de Teatro,Buenos Aires,La Matanza,La Matanza,Colegio Don Bosco,Avenida de Mayo 1902,s/d,1704,11,46510327,s/d,www.donboscoramos.edu.ar,-34.66052000,-58.56182000,Precisa,Alternativa Teatral / Relevamiento 2017,120918,Privado,0,0
6515010,6,6515,,Salas de Teatro,Buenos Aires,Malvinas Argentinas,Malvinas Argentinas,Cooperativa de Tortuguitas,Moreno 1160,s/d,1667,2320,491111,s/d,s/d,-34.46844500,-58.75781900,Precisa,Argentores / Relevamiento 2017,120926,Privado,1967,0
6588100,6,6588,,Salas de Teatro,Buenos Aires,9 De Julio,9 De Julio,Cruzavias Teatro Comunitario,Guido Spano y Moreno,s/d,6500,2317,508613,s/d,s/d,-35.44474351,-60.88434334,Localidad,Red de Teatro Comunitario / Relevamiento 2017,120929,Privado,0,0
6770050,6,6770,,Salas de Teatro,Buenos Aires,San Pedro,San Pedro,Cuarta Pared,Almafuerte e Independencia,s/d,2930,s/d,s/d,s/d,s/d,-33.68481000,-59.66651000,Precisa,Plan Podesta 2020 / Relevamiento SINCA,120930,Privado,0,0
6490010,6,6490,,Salas de Teatro,Buenos Aires,Lomas de Zamora,Lomas de Zamora,Cultura Click,Avenida Meeks 1387,s/d,1832,11,549703191,centroculturalclick@gmail.com,s/d,-34.77770000,-58.39718000,Precisa,Plan Podesta 2020 / Relevamiento SINCA,120931,Privado,0,0
6490010,6,6490,,Salas de Teatro,Buenos Aires,Lomas de Zamora,Lomas de Zamora,Cultura del Sur,Avenida Meeks 1066,s/d,1832,11,43922066,culturadelsur@gmail.com,www.culturadelsur.blogspot.com.ar,-34.77419000,-58.39755000,Precisa,Plan Podesta 2020 / Relevamiento SINCA,120932,Privado,0,180
6490010,6,6490,,Salas de Teatro,Buenos Aires,Lomas de Zamora,Lomas de Zamora,DeSignum,Gral. Guido 650,s/d,1832,11,20746357,informes@designum.com.ar,www.designum.com.ar,-34.77682000,-58.39893000,Precisa,Secretaria de Cultura Lomas de Zamora / Relevamiento 2017,120939,Privado,0,0
6410010,6,6410,,Salas de Teatro,Buenos Aires,Ituzaingó,Ituzaingo,El Arcón Teatro,24 de Octubre 933,s/d,1714,11,46618528,elarcondelossuenios@gmail.com,s/d,-34.66112000,-58.66728000,Precisa,Alternativa Teatral / Relevamiento 2017,120945,Privado,0,0
6357110,6,6357,,Salas de Teatro,Buenos Aires,General Pueyrredon,Mar del Plata,El Caldero,España 2031,s/d,7600,223,4930395,elcalderoteatroes@yahoo.com.ar,s/d,-37.99743300,-57.55810600,Precisa,INT / Relevamiento 2017,120952,Privado,0,0
6357110,6,6357,,Salas de Teatro,Buenos Aires,General Pueyrredon,Mar del Plata,El Club del Teatro,Rivadavia 3422,s/d,7600,223,4758790,elclubdeteatro@yahoo.com.ar,www.elclubdelteatro.blogspot.com,-37.99600800,-57.55584100,Precisa,Plan Podesta 2020 / Relevamiento SINCA,120954,Privado,0,0
6434010,6,6434,,Salas de Teatro,Buenos Aires,Lanús,Lanús,El Correo Cultura Pipi,Juan de Garay 200,s/d,1824,11,20770954,s/d,s/d,-34.72696000,-58.39788000,Precisa,Alternativa Teatral / Relevamiento 2017,120955,Privado,0,0
6371010,6,6371,,Salas de Teatro,Buenos Aires,General San Martín,General San Martin,El Culebron Timbal,Aristobulo del Valle 4814,s/d,1653,11,20452423,rafaskivel@yahoo.com.ar,s/d,-34.55467000,-58.55956000,Precisa,Programa Puntos de Cultura / Relevamiento,120960,Privado,0,50
6134030,6,6134,,Salas de Teatro,Buenos Aires,Cañuelas,Cañuelas,El Cultivo Teatro-Club,De Los Inmigrantes 1023,s/d,1814,222,6432179,elcultivo@infovia.com.ar,www.elcultivo-teatro.blogspot.com.ar,-35.05507071,-58.75840472,Precisa,INT / Relevamiento 2017,120961,Privado,0,0
6441030,6,6441,,Salas de Teatro,Buenos Aires,La Plata,La Plata,Teatro El Escape,Calle 4 nº 1143 ,s/d,1900,221,4704579,s/d,s/d,-34.91502000,-57.94277000,Precisa,Plan Podesta 2020 / Relevamiento SINCA,120964,Privado,0,0
6441030,6,6441,,Salas de Teatro,Buenos Aires,La Plata,La Plata,Centro Cultural El Escudo,Calle 10 nº 1373,s/d,1900,s/d,s/d,s/d,s/d,-34.92412800,-57.94409300,Precisa,Plan Podesta 2020 / Relevamiento SINCA,120965,Privado,0,0
6490010,6,6490,,Salas de Teatro,Buenos Aires,Lomas de Zamora,Lomas de Zamora,El Galpón de Banfield,Vergara 1375,s/d,1832,11,s/d,teatroenelgalpon@gmail.com,s/d,-34.74453000,-58.39493000,Precisa,Secretaria de Cultura Lomas de Zamora / Relevamiento 2017,120970,Privado,0,0
6490010,6,6490,,Salas de Teatro,Buenos Aires,Lomas de Zamora,Lomas de Zamora,El Nido,Manuel Castro 478,s/d,1832,11,42431214,hola@elnidoarte.com.ar,www.elnidoarte.com.ar,-34.75449000,-58.40287000,Precisa,Secretaria de Cultura Lomas de Zamora / Relevamiento 2017,120978,Privado,0,0
6490010,6,6490,,Salas de Teatro,Buenos Aires,Lomas de Zamora,Lomas de Zamora,El Semillero,Avenida Seguí 925,s/d,1832,11,42813757,s/d,www.centroculturalelsemillero.com,-34.79873000,-58.39426000,Precisa,Secretaria de Cultura Lomas de Zamora / Relevamiento 2017,120986,Privado,0,0
6756010,6,6756,,Salas de Teatro,Buenos Aires,San Isidro,San Isidro,El Silo del Bajo,Primera Junta 1001,s/d,1642,11,47431490,muestraselsilo@gmail.com,s/d,-34.46242000,-58.50836000,Precisa,Alternativa Teatral / Relevamiento 2017,120987,Privado,0,0
6483040,6,6483,,Salas de Teatro,Buenos Aires,Lobos,Lobos,El Teatrito,San Martin 65,s/d,7240,s/d,s/d,s/d,s/d,-35.18822093,-59.09572415,Precisa,INT / Relevamiento 2017,120992,Privado,0,0
6441030,6,6441,,Salas de Teatro,Buenos Aires,La Plata,La Plata,El Teatro Bar - Sala Café concert,Calle 43 nº 632,s/d,1900,221,4832006,prensa@elteatrobar.com.ar,www.elteatrobar.com.ar,-34.91051000,-57.95703000,Precisa,Alternativa Teatral / Relevamiento 2017,120993,Privado,0,450
6357110,6,6357,,Salas de Teatro,Buenos Aires,General Pueyrredon,Mar del Plata,El Vagón de Los Titeres,Av. Luro 4501,s/d,7600,223,4804922,s/d,s/d,-37.98894000,-57.56535000,Precisa,INT / Relevamiento 2017,120997,Privado,0,0
6056010,6,6056,,Salas de Teatro,Buenos Aires,Bahía Blanca,Bahía Blanca,Escuela de Teatro de Bahía Blanca,Gral. Paz 250,s/d,8000,s/d,s/d,s/d,www.etbblanca-bue.infd.edu.ar/sitio/,-38.71994000,-62.25777000,Precisa,Relevamiento 2017,121013,Público,0,0
6028010,6,6028,,Salas de Teatro,Buenos Aires,Almirante Brown,Almirante Brown,Espacio Cultural Superarte,Belgrano 1705,s/d,1854,11,42337922,espaciosuperarte@gmail.com,s/d,-34.86061200,-58.39204000,Precisa,Plan Podesta 2020 / Relevamiento SINCA,121033,Privado,0,0
6357110,6,6357,,Salas de Teatro,Buenos Aires,General Pueyrredon,Mar del Plata,Espacio La Bicicleta,Falucho 4466,s/d,7600,223,96858448,labicicasadeteatro@gmail.com,s/d,-37.99584000,-57.57017000,Precisa,INT / Relevamiento 2017,121040,Privado,0,0
6455030,6,6455,,Salas de Teatro,Buenos Aires,Las Flores,Las Flores,Espacio Teatral del Borde,Bernardo de Irigoyen 570,s/d,7200,2244,441926,delbordeteatro@gmail.com,s/d,-36.01754494,-59.10043227,Precisa,Plan Podesta 2020 / Relevamiento SINCA,121049,Privado,0,0
6098010,6,6098,,Salas de Teatro,Buenos Aires,Berisso,Berisso,Grupo de Berisso,Calle 9 entre Calle 165 y Calle 166,s/d,1923,221,4614922,teatrocomunitarioberisso@yahoo.com.ar,s/d,-34.87033200,-57.88661400,Precisa,Red de Teatro Comunitario / Relevamiento 2017,121087,Privado,0,0
6588100,6,6588,,Salas de Teatro,Buenos Aires,9 De Julio,9 De Julio,Grupo de Teatro Comunitario Patricios Unidos de Pie,Sarmiento  Av. y Saavedra (Estación de Tren),s/d,6500,2317,423935,algasmarinas@speedy.com.ar,www.patriciosunidosdepie.com.ar,-35.46114900,-60.86984900,Precisa,Red de Teatro Comunitario / Relevamiento 2017,121088,Privado,0,0
6490010,6,6490,,Salas de Teatro,Buenos Aires,Lomas de Zamora,Lomas de Zamora,Hijos de Los Barcos,Medrano 67,s/d,1828,11,s/d,s/d,s/d,-34.74806300,-58.39552400,Precisa,INT / Relevamiento 2017,121093,Privado,0,0
6490010,6,6490,,Salas de Teatro,Buenos Aires,Lomas de Zamora,Lomas de Zamora,Jicara Teatro (Ex Galón de Diablomundo),Almirante Brown 3589,s/d,1832,11,42480441,galpondiablomundo@gmail.com,s/d,-34.77815500,-58.39119400,Precisa,Plan Podesta 2020 / Relevamiento SINCA,121109,Privado,0,100
6805010,6,6805,,Salas de Teatro,Buenos Aires,Tigre,Tigre,Kaiola Blue,Isla Kaiola Blue  Arroyo Gélvez,s/d,1648,11,22478959,kaiolablue@gmail.com,s/d,-34.42569107,-58.58104727,Localidad,Alternativa Teatral / Relevamiento 2017,121114,Privado,0,0
6840010,6,6840,,Salas de Teatro,Buenos Aires,Tres de Febrero,Tres de Febrero,La Brújula al Oeste,Padre Elizalde 181,s/d,1702,11,(011) 5291 9312,teatrociudadela@hotmail.com,https://www.facebook.com/brujulaaloeste,-34.63813000,-58.54236000,Precisa,Plan Podesta 2020 / Relevamiento SINCA,121120,Privado,0,0
6756010,6,6756,,Salas de Teatro,Buenos Aires,San Isidro,San Isidro,La Casa de La Juventud,Don Bosco 47,s/d,1642,11,45123130,s/d,www.sanisidro.gob.ar/pagina/16/juventud,-34.46895200,-58.51834700,Precisa,Argentores / Relevamiento 2017,121130,Público,0,0
6441030,6,6441,,Salas de Teatro,Buenos Aires,La Plata,La Plata,La Casa de las Tías,Calle 49 nº 1119,s/d,1900,221,4275671,lacasadelastías@yahoo.com.ar,s/d,-34.92404800,-57.96107100,Precisa,INT / Relevamiento 2017,121131,Privado,0,0
6568010,6,6568,,Salas de Teatro,Buenos Aires,Moron,Morón,La Casa del Poeta,Nuestra Senora del Buen Viaje 1171,s/d,1708,11,4629 4569,s/d,http://lacasadelpoeta.weebly.com,-34.65166200,-58.62499300,Precisa,INT / Relevamiento 2017,121134,Privado,2000,0
6056010,6,6056,,Salas de Teatro,Buenos Aires,Bahía Blanca,Bahía Blanca,La Cocina,Fitz Roy 40,s/d,8000,291,6496719,studiosilviae2003@yahoo.com.ar,s/d,-38.72151000,-62.26378000,Precisa,Alternativa Teatral / Relevamiento 2017,121140,Privado,0,0
6252010,6,6252,,Salas de Teatro,Buenos Aires,Escobar,Escobar,La Kalimba Espacio de Arte,Don Bosco 843,s/d,1625,11,5897 9315,espaciolakalimba@gmail.com,https://www.lakalimba.com.ar/,-34.35185165,-58.79164094,Precisa,Fondo Desarrollar 2020,121155,Privado,0,0
6357110,6,6357,,Salas de Teatro,Buenos Aires,General Pueyrredon,Mar del Plata,La Maga Casa de Arte,Jujuy 1771,s/d,7600,223,6342822,lamagamdq@gmail.com,s/d,-37.99583014,-57.55561143,Precisa,Plan Podesta 2020 / Relevamiento SINCA,121160,Privado,0,0
6490010,6,6490,,Salas de Teatro,Buenos Aires,Lomas de Zamora,Lomas de Zamora,La Troupe Circo,Melo 119,s/d,1832,11,42459181,latroupecirco@gmail.com,s/d,-34.75188323,-58.39440376,Precisa,Secretaria de Cultura Lomas de Zamora / Relevamiento 2017,121172,Privado,0,0
6441030,6,6441,,Salas de Teatro,Buenos Aires,La Plata,La Plata,Escenario 40 Teatro,Calle 40 n° 1180,s/d,1900,221,4545243,escenario40@gmail.com,s/d,-34.91821000,-57.97160000,Precisa,Plan Podesta 2020 / Relevamiento SINCA,121180,Privado,0,0
6357110,6,6357,,Salas de Teatro,Buenos Aires,General Pueyrredon,Mar del Plata,Lido  Mar del Plata,Santa Fe 1751,s/d,7600,223,4943301,redaccion@multiteatro.com.ar,www.multiteatro.com.ar,-38.00087400,-57.54518600,Precisa,Argentores / AADET / Relevamiento 2017,121184,Privado,0,0
6609090,6,6609,,Salas de Teatro,Buenos Aires,Pehuajó,San Bernardo,Luz y Fuerza  San Bernardo,Chiozza  2455,s/d,7111,2257,460268,perrottiariel@yahoo.com.ar,s/d,-36.69068800,-56.67803500,Precisa,Argentores / AADET / Relevamiento 2017,121192,Privado,0,0
6357110,6,6357,,Salas de Teatro,Buenos Aires,General Pueyrredon,Mar del Plata,Mar de Fondo,25 de Mayo 2957,s/d,7600,223,6330016,mardefondoprensa@gmail.com,s/d,-37.99600000,-57.54900000,Precisa,INT / Relevamiento 2017,121198,Privado,0,0
6658010,6,6658,,Salas de Teatro,Buenos Aires,Quilmes,Quilmes,MimoTeatro de Bernal,25 de Mayo 292,s/d,1876,11,42598786,mimo@escueladeteatro.com.ar,s/d,-34.72520200,-58.25266100,Precisa,INT / Relevamiento 2017,121207,Privado,0,0
6861010,6,6861,,Salas de Teatro,Buenos Aires,Vicente Lopez,Vicente Lopez,Núcleo Espacio Artístico,Av. Maipu 3143,s/d,1636,11,47119424,contacto@espacionucleo.com.ar,www.teatronucleo.com.ar,-34.50685000,-58.49270000,Precisa,Alternativa Teatral / Relevamiento 2017,121221,Privado,0,120
6357110,6,6357,,Salas de Teatro,Buenos Aires,General Pueyrredon,Mar del Plata,Olympia,Rivadavia 2380,s/d,7600,223,4924445,teatro_olympia@hotmail.com,s/d,-38.00134100,-57.54528300,Precisa,Alternativa Teatral / Relevamiento 2017,121225,Privado,0,0
6441030,6,6441,,Salas de Teatro,Buenos Aires,La Plata,La Plata,Pasaje Dardo Rocha,Calle 50 entre Calle 6 y Calle 7,s/d,s/d,221,4251990,s/d,www.cultura.laplata.gov.ar/lugar/centro-cultural-pasaje-dardo-rocha,-34.91454400,-57.94955600,Precisa,Alternativa Teatral / Relevamiento 2017,121237,Público,0,0
6760010,6,6760,,Salas de Teatro,Buenos Aires,San Miguel,San Miguel,Pentagrama Estudio,Primera Junta 1101,s/d,1663,11,54329559,pentagramaestudio@hotmail.com,s/d,-34.53304000,-58.72352000,Precisa,Alternativa Teatral / Relevamiento 2017,121241,Privado,0,0
6371010,6,6371,,Salas de Teatro,Buenos Aires,General San Martín,General San Martin,Pequeño Teatro        ,Tucumán 2157,s/d,1650,11,47551149,musicaensanmartin@gmail.com,s/d,-34.57719000,-58.54007000,Precisa,Relevamiento 2017,121242,Privado,0,0
6760010,6,6760,,Salas de Teatro,Buenos Aires,San Miguel,San Miguel,Plaza de las Carretas,Avenida Perón y San José,s/d,1663,s/d,s/d,laplazadelascarretas@yahoo.com.ar,s/d,-34.54839000,-58.70365000,Precisa,Alternativa Teatral / Relevamiento 2017,121253,Público,0,0
6357110,6,6357,,Salas de Teatro,Buenos Aires,General Pueyrredon,Mar del Plata,Radio City Art Center Roxy Melany,San Luis 1750,s/d,7600,223,4958547,boleteria@centrodeartemdq.com.ar,www.centrodeartemdq.com.ar,-37.99936300,-57.54813100,Precisa,Alternativa Teatral / Relevamiento 2017,121263,Privado,0,408
6357110,6,6357,,Salas de Teatro,Buenos Aires,General Pueyrredon,Mar del Plata,Teatro Estudio Re Fa Si,Av. Luro  2320,s/d,7600,223,4925103,s/d,s/d,-38.00001800,-57.54338900,Precisa,Argentores / Relevamiento 2017,121266,Privado,0,0
6357110,6,6357,,Salas de Teatro,Buenos Aires,General Pueyrredon,Mar del Plata,Teatro La Bancaria - Sala Arturo Jauretche,San Luis 2069,s/d,7600,223,4957711,smardelplata@bancaria.org.ar,www.bancariamdp.org.ar,-38.00189100,-57.55020700,Precisa,INT / Relevamiento 2017,121272,Privado,0,120
6119050,6,6119,,Salas de Teatro,Buenos Aires,Coronel Brandsen,Coronel Brandsen,Teatro Municipal,Sáenz Peña 676,s/d,1980,222,3442201,s/d,s/d,-35.16736343,-58.23857815,Precisa,Alternativa Teatral / Relevamiento 2017,121281,Público,0,0
6056010,6,6056,,Salas de Teatro,Buenos Aires,Bahía Blanca,Bahía Blanca,Sala El Tablado,Chiclana 453,s/d,8000,291,4307292,eltablado@yahoo.com.ar,s/d,-38.72212900,-62.26147600,Precisa,Alternativa Teatral / Relevamiento 2017,121287,Privado,0,0
6861010,6,6861,,Salas de Teatro,Buenos Aires,Vicente Lopez,Vicente Lopez,Salón AMIA,Melo 1853,s/d,s/d,11,45139822,s/d,s/d,-34.53150796,-58.48466067,Precisa,Alternativa Teatral / Relevamiento 2017,121310,Público,0,0
6735020,6,6735,,Salas de Teatro,Buenos Aires,San Antonio de Areco,San Antonio de Areco,Salón Cultural Manuel J. de Guerrico,Lavalle 363,s/d,s/d,s/d,s/d,s/d,s/d,-34.24291815,-59.47408642,Precisa,Alternativa Teatral / Relevamiento 2017,121315,Público,0,0
6568010,6,6568,,Salas de Teatro,Buenos Aires,Moron,Morón,Salon de Banco Crediccop,Rivadavia  Av. 16238,s/d,1706,11,46592591,s/d,s/d,-34.64597000,-58.59246700,Precisa,Argentores / Relevamiento 2017,121317,Privado,0,0
6371010,6,6371,,Salas de Teatro,Buenos Aires,General San Martín,General San Martin,Salón Marienheim,Calle 110 nº 2092 (ex Pueyrredón),s/d,1651,11,47685001,s/d,s/d,-34.56965338,-58.53495435,Localidad,Alternativa Teatral / Relevamiento 2017,121324,Privado,0,0
6077010,6,6077,,Salas de Teatro,Buenos Aires,Arrecifes,Arrecifes,Salón Regina,Rivadavia 285,s/d,2740,,s/d,s/d,s/d,-34.06682856,-60.10876997,Precisa,Argentores / Relevamiento 2017,121327,Privado,0,1500
6035010,6,6035,,Salas de Teatro,Buenos Aires,Avellaneda,Avellaneda,Instituto de Teatro,Alsina 157,s/d,1870,11,42059559,s/d,s/d,-34.66390100,-58.36589300,Precisa,Argentores / Relevamiento 2017,121332,Público,0,0
6658010,6,6658,,Salas de Teatro,Buenos Aires,Quilmes,Quilmes,Sociedad de Fomento Italiana Giuseppe Verdi,Cramer 723,s/d,1876,s/d,s/d,s/d,s/d,-34.70548000,-58.28591000,Precisa,Alternativa Teatral / Relevamiento 2017,121342,Privado,0,0
6260010,6,6260,,Salas de Teatro,Buenos Aires,Esteban Echeverría,Monte Grande,Sociedad Española,Dr. Rotta 51,s/d,1842,11,42817926,s/d,s/d,-34.81865900,-58.46738200,Precisa,Argentores / Relevamiento 2017,121351,Privado,0,400
6568010,6,6568,,Salas de Teatro,Buenos Aires,Moron,Morón,Sociedad Fomento de Castelar y Biblioteca Popular 9 de Julio - Arte/Cultura,Almafuerte 2642,s/d,1712,11,46292150,s/d,s/d,-37.39283705,-62.80509305,Precisa,Argentores / Relevamiento 2017,121353,Privado,0,0
6028010,6,6028,,Salas de Teatro,Buenos Aires,Almirante Brown,Almirante Brown,Sociedad Italiana,Leonardo Rosales 1518,s/d,1846,11,42945242,mauricioorfini@speedy.com.ar,s/d,-34.79931100,-58.38672000,Precisa,Argentores / Relevamiento 2017,121354,Privado,0,0
6568010,6,6568,,Salas de Teatro,Buenos Aires,Moron,Morón,Sociedad Italiana,Rosales 1042,s/d,1706,11,44436110,s/d,s/d,-34.62275300,-58.59610700,Precisa,Argentores / Relevamiento 2017,121355,Privado,0,0
6568010,6,6568,,Salas de Teatro,Buenos Aires,Moron,Morón,Sociedad Italiana,Gral. San Martin 451,s/d,1708,11,46280652,italiamoron@gmail.com,s/d,-34.65344800,-58.62273400,Precisa,Argentores / Relevamiento 2017,121356,Privado,0,0
6371010,6,6371,,Salas de Teatro,Buenos Aires,General San Martín,General San Martin,Sociedad Italiana,Pellegrini 2030,s/d,1650,11,47555319,s/d,www.sociedaditalianadesanmartin.blogspot.com.ar,-34.57839000,-58.53864600,Precisa,Argentores / Relevamiento 2017,121358,Privado,0,0
6056010,6,6056,,Salas de Teatro,Buenos Aires,Bahía Blanca,Bahía Blanca,Sociedad Italiana de Cabildo,Rondeau 236,s/d,8000,291,4527770,s/d,s/d,-38.71961000,-62.27189000,Precisa,Argentores / Relevamiento 2017,121360,Privado,0,0
6196010,6,6196,,Salas de Teatro,Buenos Aires,Coronel Pringles,Coronel Pringles,Taller Teatral 441,Belgrano 441,s/d,7530,11,462311,tallerteatral441@yahoo.com.ar,www.tallerteatral441.blogspot.com.ar,-37.98968600,-61.35106400,Precisa,INT / Relevamiento 2017,121371,Privado,0,0
6568010,6,6568,,Salas de Teatro,Buenos Aires,Moron,Morón,Teatraje,Lincoln 777,s/d,1712,s/d,s/d,teatraje@gmail.com,www.teatraje.blogspot.com.ar,-34.65070000,-58.65379000,Precisa,Alternativa Teatral / Relevamiento 2017,121375,Privado,0,0
6441030,6,6441,,Salas de Teatro,Buenos Aires,La Plata,La Plata,Teatro Acción,Calle 61 nº 996,s/d,1900,221,4572451,info@accionlaplata.com.ar,www.accionlaplata.com.ar,-34.92926000,-57.94838000,Precisa,Alternativa Teatral / Relevamiento 2017,121379,Privado,0,0
6420040,6,6420,,Salas de Teatro,Buenos Aires,La Costa,Santa Teresita,Teatro Amarcord  Santa Teresita,Calle 2 1049,s/d,7107,2246,420587,s/d,s/d,-36.70320600,-56.67682700,Precisa,Argentores / Relevamiento 2017,121383,Privado,0,0
6357110,6,6357,,Salas de Teatro,Buenos Aires,General Pueyrredon,Mar del Plata,Teatro América,Avenida Luro y Corrientes,s/d,7600,223,4943240,redaccion@multiteatro.com.ar,www.multiteatro.com.ar,-38.00013283,-57.54317980,Precisa,Alternativa Teatral / Relevamiento 2017,121384,Privado,0,0
6056010,6,6056,,Salas de Teatro,Buenos Aires,Bahía Blanca,Bahía Blanca,Teatro Apolo,Zelarrayan 128,s/d,8000,291,4552329,s/d,s/d,-38.71593700,-62.26615100,Precisa,Relevamiento 2017,121386,Privado,0,120
6357110,6,6357,,Salas de Teatro,Buenos Aires,General Pueyrredon,Mar del Plata,Teatro Arena,Av. Juan B. Justo 70,s/d,7600,223,4761408,arenacentrodearte@yahoo.com.ar,s/d,-38.04019000,-57.54317000,Precisa,INT / Relevamiento 2017,121387,Privado,0,90
6357110,6,6357,,Salas de Teatro,Buenos Aires,General Pueyrredon,Mar del Plata,Teatro Arenales ,Arenales  2270,s/d,7600,223,4948442,mbgalan@yahoo.com.ar,s/d,-38.00767300,-57.54352300,Precisa,Argentores / Relevamiento 2017,121388,Privado,0,160
6441030,6,6441,,Salas de Teatro,Buenos Aires,La Plata,La Plata,Teatro Argentino de La Plata,Av. 51 702,s/d,1900,800,6665151,s/d,www.gba.gob.ar/es/teatroargentino,-34.91787000,-57.95147000,Precisa,Argentores / Relevamiento 2017,121389,Público,0,2000
6056010,6,6056,,Salas de Teatro,Buenos Aires,Bahía Blanca,Bahía Blanca,Teatro Ateneo,Sixto Laspiur  371,s/d,8000,291,6455137,s/d,s/d,-38.72381100,-62.28113700,Precisa,Argentores / Relevamiento 2017,121391,Privado,0,0
6749010,6,6749,,Salas de Teatro,Buenos Aires,San Fernando,San Fernando,Teatro Ateneo Popular Esteban Echeverría,25 de Mayo 1168,s/d,1646,11,47445742,s/d,s/d,-34.43917500,-58.55860800,Precisa,Argentores / Relevamiento 2017,121392,Privado,0,0
6357110,6,6357,,Salas de Teatro,Buenos Aires,General Pueyrredon,Mar del Plata,Teatro Auditorium ,Bv. Marítimo 2280 ,s/d,7600,223,4937786,auditoriumprogramacion@gmail.com,www.programacionauditorium.blogspot.com,-38.00537800,-57.54246100,Precisa,Alternativa Teatral / Relevamiento 2017,121394,Público,0,1022
6756010,6,6756,,Salas de Teatro,Buenos Aires,San Isidro,San Isidro,Teatro Auditórium San Isidro / Centro Cultural San Isidro,Avenida Libertador 16138,s/d,1642,11,47479585,info@auditoriumsanisidro.com.ar,www.auditoriumsanisidro.com.ar,-34.46828100,-58.50906300,Precisa,INT / Relevamiento 2017,121395,Público,0,350
6357110,6,6357,,Salas de Teatro,Buenos Aires,General Pueyrredon,Mar del Plata,Teatro Bar La Campana,Rivadavia 2336,s/d,7600,223,61308003,s/d,s/d,-38.00156900,-57.54484800,Precisa,Argentores / Relevamiento 2017,121397,Privado,0,0
6260010,6,6260,,Salas de Teatro,Buenos Aires,Esteban Echeverría,Monte Grande,Teatro Brancaleone,9 de Abril 935,s/d,1842,11,42816919,estudioteatrobrancaleone@yahoo.com.ar ,s/d,-34.80075400,-58.46801700,Precisa,INT / Relevamiento 2017,121399,Privado,0,0
6434010,6,6434,,Salas de Teatro,Buenos Aires,Lanús,Lanús,Teatro Carlos Gardel,Pte. Perón 3730,s/d,1824,11,42088587,info@teatrocarlosgardel.com.ar,www.teatrocarlosgardel.com.ar,-34.66694800,-58.41503100,Precisa,Alternativa Teatral / Relevamiento 2017,121403,Privado,0,572
6568010,6,6568,,Salas de Teatro,Buenos Aires,Moron,Morón,Teatro Colegio Sagrado Corazon,Sarmiento 2040,s/d,1702,11,46290209,s/d,www.sagrado-castelar.edu.ar,-34.64655000,-58.63667800,Precisa,Argentores / Relevamiento 2017,121406,Privado,0,0
6441030,6,6441,,Salas de Teatro,Buenos Aires,La Plata,La Plata,Teatro Coliseo Podestá,Calle 10 nº 733,s/d,1900,221,4248457,prensacoliseopodesta@gmail.com,www.coliseopodesta.laplata.gov.ar,-34.91566300,-57.95551400,Precisa,Alternativa Teatral / Relevamiento 2017,121407,Público,0,0
6070010,6,6070,,Salas de Teatro,Buenos Aires,Baradero,Baradero,Teatro Colón  ,Santa Maria de Oro 650,s/d,2942,s/d,s/d,s/d,s/d,-33.80784600,-59.50136100,Precisa,Argentores / Relevamiento 2017,121409,Privado,0,820
6357110,6,6357,,Salas de Teatro,Buenos Aires,General Pueyrredon,Mar del Plata,Teatro Corrientes,Corrientes 1760,s/d,7600,223,4910139,redaccion@multiteatro.com.ar,www.multiteatro.com.ar/teatros/6-corrientes.aspx,-38.00148500,-57.54427600,Precisa,Alternativa Teatral / Relevamiento 2017,121412,Privado,0,700
6756010,6,6756,,Salas de Teatro,Buenos Aires,San Isidro,Martínez,Teatro De La Cova,Avenida Del Libertador 13900,s/d,1640,11,47922960,s/d,www.teatrodelacova.com,-34.48334400,-58.48972900,Precisa,Argentores / Relevamiento 2017,121416,Privado,0,300
6644010,6,6644,,Salas de Teatro,Buenos Aires,Pinamar,Pinamar,Teatro de la Torre,Constitución 687,s/d,7167,2254,491678,culturayteatrodelatorre@gmail.com,s/d,-37.11213500,-56.86366400,Precisa,Alternativa Teatral / Relevamiento 2017,121423,Público,0,0
6490010,6,6490,,Salas de Teatro,Buenos Aires,Lomas de Zamora,Lomas de Zamora,Teatro de las Memorias,Sáenz 227,s/d,1832,11,20598607,delasmemorias@yahoo.com.ar,s/d,-34.75838500,-58.39952900,Precisa,Secretaria de Cultura Lomas de Zamora / Relevamiento 2017,121424,Privado,0,0
6427010,6,6427,,Salas de Teatro,Buenos Aires,La Matanza,La Matanza,Teatro de los Sueños,Echeverría 249,s/d,1704,11,46587087,s/d,s/d,-34.70633500,-58.63813900,Precisa,Alternativa Teatral / Relevamiento 2017,121426,Privado,0,0
6357110,6,6357,,Salas de Teatro,Buenos Aires,General Pueyrredon,Mar del Plata,Teatro del Angel,Rivadavia 2312,s/d,7600,223,s/d,s/d,s/d,-38.00170500,-57.54460100,Precisa,Plan Podesta 2020 / Relevamiento SINCA,121428,Privado,0,0
6434010,6,6434,,Salas de Teatro,Buenos Aires,Lanús,Lanús,Teatro del Centro,9 de Julio 1535,s/d,1824,s/d,s/d,s/d,s/d,-34.71074800,-58.38648200,Precisa,Argentores / Relevamiento 2017,121431,Privado,0,0
6756010,6,6756,,Salas de Teatro,Buenos Aires,San Isidro,San Isidro,Teatro del Patio,Avenida Del Libertador 16208,s/d,1642,s/d,s/d,s/d,s/d,-34.46729100,-58.50942700,Precisa,Argentores / Relevamiento 2017,121435,Privado,0,0
6714060,6,6714,,Salas de Teatro,Buenos Aires,Salto,Salto,Teatro del Salto,Maipú 169,s/d,2741,2474,422728,s/d,s/d,-34.29061288,-60.24895550,Precisa,INT / Relevamiento 2017,121437,Privado,0,280
6280020,6,6280,,Salas de Teatro,Buenos Aires,General Alvarado,Mar del Sur,Teatro del Sur,Calle 31 y Calle 102,s/d,7607,s/d,s/d,teasur@gmail.com,s/d,-38.33893000,-57.99656000,Precisa,Relevamiento SINCA,121439,Público,0,0
6756010,6,6756,,Salas de Teatro,Buenos Aires,San Isidro,San Isidro,Teatro Don Bosco Institución Salesiana,Diego Palma 289,s/d,1642,11,47433800,s/d,s/d,-34.47260500,-58.51997300,Precisa,Argentores / Relevamiento 2017,121441,Privado,0,0
6105060,6,6105,,Salas de Teatro,Buenos Aires,Bolívar,Bolivar,Teatro El Mangrullo,San Martin 1065,s/d,6550,2314,428781,s/d,s/d,-36.22775100,-61.11743100,Precisa,INT / Relevamiento 2017,121447,Privado,0,140
6427010,6,6427,,Salas de Teatro,Buenos Aires,La Matanza,La Matanza,Teatro Esloveno,Castelli 28,s/d,1704,s/d,s/d,s/d,s/d,-34.64485478,-58.56094712,Precisa,Alternativa Teatral / Relevamiento 2017,121457,Privado,0,0
6196010,6,6196,,Salas de Teatro,Buenos Aires,Coronel Pringles,Coronel Pringles,Teatro Español,Stegmann 628,s/d,7530,2922,462094,teatro@pringles.com.ar,www.teatropringles.com.ar,-37.98542000,-61.35403800,Precisa,Argentores / Relevamiento 2017,121458,Privado,0,600
6854100,6,6854,,Salas de Teatro,Buenos Aires,25 De Mayo,25 De Mayo,Teatro Español,Calle 9 n°1038,s/d,6660,s/d,s/d,teatroespaniol25@gmail.com,www.teatrode25demayo.blogspot.com,-35.43054400,-60.17068500,Precisa,Argentores / Relevamiento 2017,121459,Privado,0,0
6154010,6,6154,,Salas de Teatro,Buenos Aires,Carlos Tejedor,Carlos Tejedor,Teatro Español,San Martin entre Rivadavia y 9 de Julio,s/d,6455,2357,420120,s/d,s/d,-35.39221100,-62.41901400,Precisa,Argentores / Relevamiento 2017,121460,Privado,0,0
6826050,6,6826,,Salas de Teatro,Buenos Aires,Trenque Lauquen,Trenque Lauquen,Teatro Español,Uruguay 151,s/d,6400,s/d,s/d,s/d,s/d,-35.97335300,-62.73428900,Precisa,Argentores / Relevamiento 2017,121461,Privado,0,0
6700060,6,6700,,Salas de Teatro,Buenos Aires,Pigué,Pigué,Teatro Español,España 106,s/d,8170,s/d,s/d,teatroespanolpigue@gmail.com,s/d,-37.60364000,-62.40656000,Precisa,Relevamiento 2017,121464,Privado,0,0
6357110,6,6357,,Salas de Teatro,Buenos Aires,General Pueyrredon,Mar del Plata,Teatro Estudio,Av. Independencia  2233,s/d,7600,223,5586065,arcangelorfino@hotmail.com,s/d,-38.00071000,-57.55631200,Precisa,Argentores / Relevamiento 2017,121466,Privado,0,0
6868020,6,6868,,Salas de Teatro,Buenos Aires,Villa Gesell,Villa Gesell,Teatro Gesell Plaza,Av. 3 nº 556,s/d,7165,2255,464490,s/d,s/d,-37.25710000,-56.96939600,Precisa,Alternativa Teatral / Relevamiento 2017,121471,Privado,0,0
6252010,6,6252,,Salas de Teatro,Buenos Aires,Escobar,Escobar,Teatro Girona,Cesar Diaz 657,s/d,1625,3488,420822,s/d,s/d,-34.34568000,-58.79691200,Precisa,INT / Relevamiento 2017,121472,Privado,0,220
6410010,6,6410,,Salas de Teatro,Buenos Aires,Ituzaingó,Ituzaingo,Teatro Gran Ituzaingo,Mariano Acosta 55,s/d,1714,11,20500300,s/d,www.teatrogranituzaingo.com,-34.66066500,-58.66700600,Precisa,Argentores / Relevamiento 2017,121473,Privado,0,1520
6805010,6,6805,,Salas de Teatro,Buenos Aires,Tigre,Tigre,Teatro Hindu,Manuel Obarrio y Avenida Del Golf,s/d,s/d,11,47416150,s/d,s/d,-34.49005400,-58.64229500,Precisa,Argentores / Relevamiento 2017,121474,Privado,0,0
6357110,6,6357,,Salas de Teatro,Buenos Aires,General Pueyrredon,Mar del Plata,Teatro Independencia,Independencia 1462,s/d,7600,223,4944299,s/d,s/d,-37.99437800,-57.55126800,Precisa,Argentores / Relevamiento 2017,121476,Privado,0,0
6609080,6,6609,,Salas de Teatro,Buenos Aires,Pehuajó,Pehuajó,Teatro Independiente de Pehuajó - TIP -,Varela 558,s/d,6450,2396,478890,teatroindependientepehuajo@yahoo.com.ar,s/d,-35.80736300,-61.89963500,Precisa,Plan Podesta 2020 / Relevamiento SINCA,121477,Privado,0,0
6056010,6,6056,,Salas de Teatro,Buenos Aires,Bahía Blanca,Bahía Blanca,Teatro Ingeniero White,San Martin 3619,s/d,8000,291,4572081,s/d,s/d,-38.78263300,-62.26680900,Precisa,Argentores / Relevamiento 2017,121479,Privado,0,462
6427010,6,6427,,Salas de Teatro,Buenos Aires,La Matanza,La Matanza,Teatro La Cochera,J L Larre 477,s/d,1759,2202,422388,s/d,s/d,-34.76900000,-58.64700000,Precisa,Plan Podesta 2020 / Relevamiento SINCA,121482,Privado,0,250
6497060,6,6497,,Salas de Teatro,Buenos Aires,Luján,Lujan,Teatro La Mariana,Francia 1051 ,s/d,6700,2323,440006,gtielgalpon@hotmail.com,s/d,-34.56505400,-59.11954800,Precisa,Alternativa Teatral / Relevamiento 2017,121485,Privado,0,80
6568010,6,6568,,Salas de Teatro,Buenos Aires,Moron,Morón,Centro Cultural La Panadería,Uruguay 400,s/d,1708,11,54376882,s/d,s/d,-34.64932000,-58.59348000,Aproximada,Relevamiento SINCA,121487,Privado,0,0
6518060,6,6518,,Salas de Teatro,Buenos Aires,Mar Chiquita,Santa Clara del Mar,Teatro Leonardo Favio,La Florida 500,s/d,s/d,s/d,s/d,s/d,s/d,-37.83352000,-57.50684000,Precisa,Alternativa Teatral / Relevamiento 2017,121488,Público,0,0
6760010,6,6760,,Salas de Teatro,Buenos Aires,San Miguel,San Miguel,Teatro Leopoldo Marechal,Cnel. Charlone 1146,s/d,1663,11,37884118,s/d,www.msm.gov.ar/lugar/teatro-marechal,-34.54348300,-58.70945100,Precisa,Argentores / Relevamiento 2017,121489,Público,0,0
6686060,6,6686,,Salas de Teatro,Buenos Aires,Rojas,Rojas,Teatro Libre Florencio Sanchez,25 de Mayo 227,s/d,2705,2475,462694,teatrotafs@hotmail.com,s/d,-34.19932200,-60.73195900,Precisa,INT / Relevamiento 2017,121490,Público,0,246
6638040,6,6638,,Salas de Teatro,Buenos Aires,Pilar,Pilar,Teatro Lope Vega,Pedro Lagrave 725,s/d,1629,2322,664676,teatro@pilar.gov.ar,s/d,-34.45703300,-58.91501200,Precisa,Alternativa Teatral / Relevamiento 2017,121491,Público,0,0
6441030,6,6441,,Salas de Teatro,Buenos Aires,La Plata,La Plata,Teatro Lucía Febrero,Diagonal 74 nº 817,s/d,1900,221,118006,catani@netverk.com.ar,s/d,-34.90390000,-57.95568400,Precisa,INT / Relevamiento 2017,121492,Privado,0,100
6749010,6,6749,,Salas de Teatro,Buenos Aires,San Fernando,Victoria,Teatro Martín Fierro,Pasteur 1415,s/d,1644,11,47252702,teatromartinfierro@hotmail.com,https://l.facebook.com/l.php?u=http%3A%2F%2Finstagram.com%2Fteatro.martin.fierro%3Ffbclid%3DIwAR22rWmJU7nIeTEGqGrfeBnd_wpIuiOxYD0Vd9CD3KjciFfCPNWMm3nhO7c&h=AT0Y2QY1jf2jNc_MR1yui9aa6njcwp2EqusoDtQMaHNzDfH9304-hFNIDpwkCJbHiWxKZi3Dzw1OgjeLtwZNaLGEpElEG7gTqJiS2MiACgRTt3ENBvTFoSJHRxhK7WcRRCqR,-34.45110900,-58.54694200,Precisa,Plan Podesta 2020 / Relevamiento SINCA,121501,Privado,0,0
6217010,6,6217,,Salas de Teatro,Buenos Aires,Chascomús,Chascomús,Teatro Municipal Brazzola,Sarmiento 90,s/d,7130,2241,430141,culturaabiertachascomus@gmail.com,s/d,-35.57939900,-58.14081000,Precisa,Relevamiento 2017,121506,Público,0,0
6539010,6,6539,,Salas de Teatro,Buenos Aires,Merlo,Merlo,Teatro Municipal de Merlo Enrique Santos Discépolo,Colón 600,s/d,1722,s/d,s/d,s/d,www.merlo.gob.ar/cartelera-teatro-municipal,-34.66679100,-58.72332600,Precisa,Argentores / Relevamiento 2017,121508,Público,0,0
6568010,6,6568,,Salas de Teatro,Buenos Aires,Moron,Morón,Teatro Municipal de Morón ,Brown y San Martín,s/d,1708,11,44831412,teatromunicipal@moron.gob.ar,www.moronespectaculos.com.ar/01%20salas/sala_teatro_municipal.html,-34.65056400,-58.62242300,Precisa,Alternativa Teatral / Relevamiento 2017,121509,Público,0,200
6658010,6,6658,,Salas de Teatro,Buenos Aires,Quilmes,Quilmes,Teatro Municipal de Quilmes,Avenida Mitre 721,s/d,1878,11,42532213,s/d,s/d,-34.72251290,-58.25323870,Precisa,Relevamiento 2017,121510,Público,0,0
6791050,6,6791,,Salas de Teatro,Buenos Aires,Tandil,Tandil,Teatro Municipal del Fuerte,Fte. de La Independencia  360,s/d,7000,s/d,s/d,s/d,s/d,-37.32989600,-59.13631100,Precisa,Argentores / Relevamiento 2017,121511,Público,0,500
6756010,6,6756,,Salas de Teatro,Buenos Aires,San Isidro,San Isidro,Teatro Municipal del Viejo Concejo de San Isidro,9 de julio 512,s/d,1642,11,45123213,s/d,s/d,-34.46824300,-58.51051900,Precisa,Alternativa Teatral / Relevamiento 2017,121512,Público,0,139
6749010,6,6749,,Salas de Teatro,Buenos Aires,San Fernando,San Fernando,Teatro Municipal Julio Martinelli,Lavalle 3021,s/d,1646,11,47464173,s/d,s/d,-34.45434300,-58.54274500,Precisa,Alternativa Teatral / Relevamiento 2017,121515,Público,0,0
6560010,6,6560,,Salas de Teatro,Buenos Aires,Moreno,Moreno,Teatro Municipal Leopoldo Marechal de Moreno,Asconape 85,s/d,1744,237,4620001,culturamoreno@gmail.com,www.moreno.gov.ar,-34.65154800,-58.79078900,Precisa,Alternativa Teatral / Relevamiento 2017,121518,Público,0,0
6581040,6,6581,,Salas de Teatro,Buenos Aires,Necochea,Necochea,Teatro Municipal Luis Sandrini,Calle 54 nº 3080,s/d,7630,2262,425705,nitoteatro@hotmail.com,s/d,-38.55745000,-58.73925600,Precisa,Relevamiento 2017,121519,Público,0,243
6595070,6,6595,,Salas de Teatro,Buenos Aires,Olavarría,Olavarría,Teatro Municipal Olavarria,Rivadavia 7400,s/d,7400,2284,431607,teatromunicipal@olavarria.gov.ar,www.olavarria.gov.ar/cultura/teatro-municipal/,-36.89380200,-60.32226300,Precisa,Relevamiento 2017,121520,Público,0,1100
6126030,6,6126,,Salas de Teatro,Buenos Aires,Campana,Campana,Teatro Municipal Pedro Barbero,San Martin 470,s/d,2804,s/d,s/d,s/d,s/d,-34.16545400,-58.96048200,Precisa,Argentores / Relevamiento 2017,121521,Público,0,223
6819040,6,6819,,Salas de Teatro,Buenos Aires,Torquinst,Torquinst,Teatro Municipal Rodolfo Funke Torquinst,Alem 51 ,s/d,8160,291,4940810,s/d,s/d,-38.98736000,-62.22362500,Precisa,Relevamiento 2017,121523,Público,0,0
6770050,6,6770,,Salas de Teatro,Buenos Aires,San Pedro,San Pedro,Teatro Municipal Siripo,Salta y Oliveira Cezar,s/d,2930,s/d,s/d,s/d,s/d,-33.67800400,-59.66321300,Precisa,Alternativa Teatral / Relevamiento 2017,121524,Público,0,0
6252010,6,6252,,Salas de Teatro,Buenos Aires,Escobar,Escobar,Teatro Municipal Tomas Hugo Seminari,Mitre 451,s/d,1625,s/d,s/d,s/d,s/d,-34.34878900,-58.79323400,Precisa,Argentores / Relevamiento 2017,121526,Público,0,420
6497060,6,6497,,Salas de Teatro,Buenos Aires,Luján,Lujan,Teatro Municipal Trinidad Guevara,Ridavavia 1019,s/d,6700,2323,420074,teatromtg@lujan.gov.ar,s/d,-34.56595300,-59.11841100,Precisa,Alternativa Teatral / Relevamiento 2017,121527,Público,0,0
6623100,6,6623,,Salas de Teatro,Buenos Aires,Pergamino,Pergamino,Teatro Municipal Unión Ferroviaria,Bv. Alsina 530,s/d,2700,2477,416600,s/d,s/d,-33.88986000,-60.57005000,Precisa,Argentores / Relevamiento 2017,121528,Público,0,195
6490010,6,6490,,Salas de Teatro,Buenos Aires,Lomas de Zamora,Lomas de Zamora,Teatro Nueva Roma,Vicente Fidel López 787,s/d,1832,11,55126411,teatronuevaroma@gmail.com,s/d,-34.78080000,-58.40299000,Precisa,Alternativa Teatral / Relevamiento 2017,121529,Privado,0,0
6441030,6,6441,,Salas de Teatro,Buenos Aires,La Plata,La Plata,Teatro Opera,Calle 58 nº 773,s/d,1900,221,4890813,prensa@elteatrobar.com.ar,www.elteatrobar.com.ar/salas/sala-opera,-34.92242200,-57.94744200,Precisa,Alternativa Teatral / Relevamiento 2017,121530,Privado,0,850
6568010,6,6568,,Salas de Teatro,Buenos Aires,Moron,Morón,Teatro Roberto Duran,Sarmiento 3044,s/d,1712,11,49803467,s/d,https://www.facebook.com/teatrorobertoduranok/,-34.64397900,-58.65005000,Precisa,Argentores / Relevamiento 2017,121534,Privado,0,0
6035010,6,6035,,Salas de Teatro,Buenos Aires,Avellaneda,Avellaneda,Teatro Roma,Sarmiento 101,s/d,1870,11,42059647,s/d,s/d,-34.66245000,-58.36378000,Precisa,Alternativa Teatral / Relevamiento 2017,121536,Público,0,0
6070010,6,6070,,Salas de Teatro,Buenos Aires,Baradero,Baradero,Teatro San Martín,Anchorena  942,s/d,2942,s/d,s/d,s/d,s/d,-33.80826800,-59.50225100,Precisa,Argentores / Relevamiento 2017,121538,Privado,0,0
6868020,6,6868,,Salas de Teatro,Buenos Aires,Villa Gesell,Villa Gesell,Teatro San Martín,Av. 3 y Calle 105,s/d,7165,2255,44477788,pablocota@fibertel.com.ar,s/d,-37.25143000,-56.97679100,Precisa,Argentores / AADET / Relevamiento 2017,121539,Privado,0,0
6357110,6,6357,,Salas de Teatro,Buenos Aires,General Pueyrredon,Mar del Plata,Teatro Santa Fe,Santa Fe 1854,s/d,7600,223,4920856,alfredorusso@2vias.com.ar,s/d,-38.00165800,-57.54583000,Precisa,Argentores / AADET / Relevamiento 2017,121540,Privado,0,0
6427010,6,6427,,Salas de Teatro,Buenos Aires,La Matanza,La Matanza,Teatro Sociedad de Fomento de Tapiales,Altolaguirre 378,s/d,s/d,11,46221938,vamoscon@hotmail.com,s/d,-34.70108400,-58.50998700,Precisa,Red de Teatro Comunitario / Relevamiento 2017,121546,Privado,0,0
6756010,6,6756,,Salas de Teatro,Buenos Aires,San Isidro,San Isidro,Teatro Stella Maris,Chacabuco Martin Y Omar 399,s/d,1642,11,47432009,stellamaristeatro@gmail.com,www.teatrostellamaris.com.ar,-34.47024100,-58.50951100,Precisa,Argentores / Relevamiento 2017,121548,Privado,1878,335
6427010,6,6427,,Salas de Teatro,Buenos Aires,La Matanza,La Matanza,Teatro Tapiales,Tuyuti 1568,s/d,s/d,11,46226207,teatro@tapiales.com.ar,s/d,-34.70074949,-58.50599332,Precisa,Alternativa Teatral / Relevamiento 2017,121551,Privado,0,0
6581040,6,6581,,Salas de Teatro,Buenos Aires,Necochea,Necochea,Teatro Toledo,Avenida 75 Y 58,s/d,7630,2262,405800,teatrotoledo@hotmail.com,s/d,-38.56079400,-58.74661300,Precisa,Argentores / AADET / Relevamiento 2017,121552,Privado,0,0
6371010,6,6371,,Salas de Teatro,Buenos Aires,General San Martín,General San Martin,Teatro Tornavía - UNSAM -,25 de Mayo y Francia,s/d,1650,11,40061500,eventosculturaunsam@gmail.com,www.unsam.edu.ar/culturaunsam/,-34.57897000,-58.52656000,Precisa,Alternativa Teatral / Relevamiento 2017,121553,Público,0,0
6056010,6,6056,,Salas de Teatro,Buenos Aires,Bahía Blanca,Bahía Blanca,Teatro Variette,Villarino 214,s/d,8000,291,6495298,s/d,s/d,-38.72516000,-62.26398000,Precisa,Plan Podesta 2020 / Relevamiento SINCA,121555,Privado,0,0
6441030,6,6441,,Salas de Teatro,Buenos Aires,La Plata,La Plata,Teatro Telon Negro,Calle 13 entre Calle 32 y Calle 33 ,s/d,s/d,221,4670639,info@telonnegroteatro.com.ar,www.telonnegroteatro.com.ar,-34.90653000,-57.97458000,Aproximada,Plan Podesta 2020 / Relevamiento SINCA,121563,Privado,0,0
6441030,6,6441,,Salas de Teatro,Buenos Aires,La Plata,La Plata,Tentempié,Calle 66 nº 824 ,s/d,1900,s/d,s/d,s/d,s/d,-34.93013100,-57.93904000,Precisa,Alternativa Teatral / Relevamiento 2017,121564,Privado,0,0
6756010,6,6756,,Salas de Teatro,Buenos Aires,San Isidro,San Isidro,The Playhouse - The Suburban Players -,Moreno 80,s/d,1642,11,47474470,info@thesuburbanplayers.com,www.thesuburbanplayers.com,-34.47438000,-58.51473000,Precisa,Alternativa Teatral / Relevamiento 2017,121566,Privado,1963,0
6588100,6,6588,,Salas de Teatro,Buenos Aires,9 De Julio,9 De Julio,TIN Teatro Independiente Nuevejuliense,Libertad 768,s/d,6500,s/d,s/d,s/d,s/d,-35.44647700,-60.88394100,Precisa,Argentores / Relevamiento 2017,121568,Privado,0,0
6427010,6,6427,,Salas de Teatro,Buenos Aires,La Matanza,La Matanza,Travesía Teatro,El Macurú 162,s/d,1778,11,39389994,travesiateatro@gmail.com,http://travesiateatro.com.ar,-34.73477200,-58.53196000,Precisa,Plan Podesta 2020 / Relevamiento SINCA,121570,Privado,0,60
6840010,6,6840,,Salas de Teatro,Buenos Aires,Tres de Febrero,Tres de Febrero,Universidad Nacional de 3 de Febrero - Sede Caseros -,Valentín Gómez 4752,s/d,s/d,11,45755012,s/d,www.untref.edu.ar/sedes,-34.60508000,-58.56308000,Precisa,Alternativa Teatral / Relevamiento 2017,121574,Público,0,0
6434010,6,6434,,Salas de Teatro,Buenos Aires,Lanús,Lanús,Universidad Nacional de Lanús -  UNLA,29 de Septiembre 3901,s/d,1824,11,55335600,s/d,www.unla.edu.ar,-34.73553000,-58.39103000,Precisa,Alternativa Teatral / Relevamiento 2017,121575,Público,0,0
6441030,6,6441,,Salas de Teatro,Buenos Aires,La Plata,La Plata,VIL Teatro,Calle 11 nº 1884,s/d,1900,s/d,s/d,vilteatrolaplata@gmail.com,s/d,-34.93351000,-57.93361000,Precisa,Plan Podesta 2020 / Relevamiento SINCA,121586,Privado,0,30
6434010,6,6434,,Salas de Teatro,Buenos Aires,Lanús,Lanús,Auditorio Hugo Del Carril,Avenida Hipólito Yrigoyen 3863,s/d,1824,11,42478075,culturayeducacionlanus@gmail.com,s/d,-34.69865647,-58.39361488,,Red de Ciudades Creativas,121589,Público,1984,259
6413050,6,6413,,Salas de Teatro,Buenos Aires,Junin,Junin,El salón,Belgrano 84,1°,6000,s/d,s/d,s/d,s/d,-34.59104902,-60.94938918,Precisa,Red de Ciudades Creativas,121590,Público,2015,150
6861010,6,6861,,Salas de Teatro,Buenos Aires,Vicente Lopez,Vicente Lopez,Alparamis,Av. Del Libertador 2229,,1638,,,www.alparamis.com.ar,,-34.51051300,-58.47802900,Precisa,Red de Espacios Culturales Vicente López,121592,Privado,0,
6861010,6,6861,,Salas de Teatro,Buenos Aires,Vicente Lopez,Vicente Lopez,Complejo Cultural Comunicanto,Bolivia 1590,,1406,,,www.comunicanto.com.ar/teatro,,-34.53743370,-58.51288690,Precisa,Red de Espacios Culturales Vicente López,121593,Privado,0,
6861010,6,6861,,Salas de Teatro,Buenos Aires,Vicente Lopez,Vicente Lopez,Teatro In,Talcahuano 671,,1602,,,www.grupo-in-teatro.blogspot.com,,-34.54839080,-58.51515350,Precisa,Plan Podesta 2020 / Relevamiento SINCA,121594,Privado,0,
6861010,6,6861,,Salas de Teatro,Buenos Aires,Vicente Lopez,Vicente Lopez,La Choza de Padilla,B. de Yrigoyen 535,,1603,,,fb/lachozadepadilla,,-34.54287920,-58.50120390,Precisa,Red de Espacios Culturales Vicente López,121595,Privado,0,
6217010,6,6217,,Salas de Teatro,Buenos Aires,Chascomús,Chascomús,Mundo Gurrumin,Garay E/H.Yrigoyen y Machado,,7130,,,consuelorodriguezguerra@gmail.com,https://www.instagram.com/mundogurrumin/?hl=es-la,-35.57285000,-58.00787000,,Fondo Desarrollar 2020,121600,Privado,2016,
6252010,6,6252,,Salas de Teatro,Buenos Aires,Escobar,Garín,La Fábrica Teatral,Cabildo 2076 ,,1619,11,5468 8837,lafabricateatral@gmail.com,https://www.facebook.com/lafabricateatral/,-34.43270000,-58.73211000,,Fondo Desarrollar 2020,121601,Privado,,
6035010,6,6035,,Salas de Teatro,Buenos Aires,Avellaneda,Avellaneda,Teatro Colonial,Mitre  Av. 141,,1870,11,42011646,teatro@teatrocolonial.com,https://www.teatrocolonial.com/index.php,-34.65844077,-58.37164104,,Impulsar 2020,121648,Privado,,1601
6042010,6,6042,,Salas de Teatro,Buenos Aires,Ayacucho,Ayacucho,La Casa del Teatro de Ayacucho,Rivadavia 854,,7150,2296,,,,-37.15616000,-58.48813000,,Plan Podesta 2020 / Relevamiento SINCA,121649,Privado,,
6049020,6,6049,,Salas de Teatro,Buenos Aires,Azul,Azul,LA SALITA - Vivero Cultural Otoño Azul,Malere 567,,7300,2281,,,,-36.77624000,-59.85746000,Precisa,Plan Podesta 2020 / Relevamiento SINCA,121650,Privado,,
6056010,6,6056,,Salas de Teatro,Buenos Aires,Bahía Blanca,Bahía Blanca,Teatro Gran Plaza,Alsina 170,,8000,291,4602889,,https://teatrogranplaza.com.ar/,-38.71707410,-62.26301400,,Impulsar 2020,121651,Privado,,1000
6056010,6,6056,,Salas de Teatro,Buenos Aires,Bahía Blanca,Bahía Blanca,Espacio Juanita Primera,Alvarado 818,,8000,291,15 443 9390,espaciojuanitaprimera@hotmail.com,http://juanitaprimera.com.ar/,-38.70831500,-62.27127300,Precisa,Plan Podesta 2020 / Relevamiento SINCA,121652,Privado,2013,
6105060,6,6105,,Salas de Teatro,Buenos Aires,Bolívar,San Carlos de Bolívar,Grupo Artecon Sala El Taller,Avellaneda 730,,6550,s/d,,grupoartecon@speedy.com.ar,www.facebook.com/GrupoArtecon,-36.22806400,-61.11145400,Precisa,Plan Podesta 2020 / Relevamiento SINCA,121653,Privado,1982,
6119050,6,6119,,Salas de Teatro,Buenos Aires,Coronel Brandsen,Coronel Brandsen,Teatro El Viejo Rafiki,Magdalena Fait 442,,1980,221,545 6008,https://www.facebook.com/teatroel.viejorafiki,,-35.16007000,-58.24331200,Precisa,Plan Podesta 2020 / Relevamiento SINCA,121654,Privado,,
6224010,6,6224,,Salas de Teatro,Buenos Aires,Chivilcoy,Chivilcoy,"Teatro ""La Cueva""",Rosetti 36,,6620,2346,456902,,,-34.89377600,-60.01464000,Precisa,Plan Podesta 2020 / Relevamiento SINCA,121655,Privado,,
6260010,6,6260,,Salas de Teatro,Buenos Aires,Esteban Echeverría,Esteban Echeverría,Espacio Teatral Canning,Coronel Vicente Dupuy 4600,,1804,11,5781 4937,espacioteatralcanning@gmail.com,www.facebook.com/EspacioTeatralCanning,-34.88113000,-58.50080000,,Plan Podesta 2020 / Relevamiento SINCA,121656,Privado,,
6260010,6,6260,,Salas de Teatro,Buenos Aires,Esteban Echeverría,Monte Grande,La Pentalpha Teatro,Valentín Alsina 7,,1842,11,3796 2993,teatro@lapentalpha.com,www.instagram.com/lmacacha/?hl=es-la,-34.82364000,-58.46286000,,Plan Podesta 2020 / Relevamiento SINCA,121657,Privado,,
6260010,6,6260,,Salas de Teatro,Buenos Aires,Esteban Echeverría,Monte Grande ,La Rueca Teatro,General Alvear 483,,1842,11,4296 2573,laruecateatroyartes@gmail.com,https://www.facebook.com/LaRuecaTeatroyartes,-34.81519600,-58.45861000,Precisa,Plan Podesta 2020 / Relevamiento SINCA,121658,Privado,2012,
6280040,6,6280,,Salas de Teatro,Buenos Aires,General Alvarado,Miramar,Espacio Konstantin Teatro,Calle 36 741,,7607,2291,15456687,espaciokonstantin@gmail.com,https://www.facebook.com/EspacioKonstantinTeatro/,-38.26398500,-57.84035400,Precisa,Plan Podesta 2020 / Relevamiento SINCA,121659,Privado,,
6351020,6,6351,,Salas de Teatro,Buenos Aires,General Pinto,General Pinto,AlmaZen Teatro,Alberto Brown 448,,6050,,,eldesnivelteatro@hotmail.com,www.facebook.com/El-AlmaZen-de-Teatro-General-Pinto-637337370052676,-34.75889000,-61.89089000,,Plan Podesta 2020 / Relevamiento SINCA,121660,Privado,,
6351020,6,6352,,Salas de Teatro,Buenos Aires,Mercedes,Mercedes,"SABA, Centro de Arte",Calle 41 s/n,,6600,2324,46 1434,,www.facebook.com/sabacentrodearte,-34.65178000,-59.43907000,,Plan Podesta 2020 / Relevamiento SINCA,121661,Privado,,
6357110,6,6357,,Salas de Teatro,Buenos Aires,General Pueyrredon,Mar del Plata,Centro Cultural Dudu,25 de Mayo 3349,,7600,223,472 0110,duduteatroparabebes@gmail.com,www.facebook.com/duduteatroparabebes/,-37.99379000,-57.55314000,,Plan Podesta 2020 / Relevamiento SINCA,121662,Privado,,
6357110,6,6357,,Salas de Teatro,Buenos Aires,General Pueyrredon,Mar del Plata,TEATRIZ CLUB,Diagonal Pueyrredón 3338,,7600,223,491 4960,teatrizclub@gmail.com,https://www.teatrizclub.com,-37.99854150,-57.55093460,,Impulsar 2020,121663,Privado,,300
6357110,6,6357,,Salas de Teatro,Buenos Aires,General Pueyrredon,Mar del Plata,La Guarida,Entre Ríos 1964,,7600,223,155892384,laguaridamdp@gmail.com,https://www.facebook.com/La-Guarida-1615641628506700/,-38.00356800,-57.54454800,Precisa,Plan Podesta 2020 / Relevamiento SINCA,121664,Privado,,
6357110,6,6357,,Salas de Teatro,Buenos Aires,General Pueyrredon,Mar del Plata,El Telón Teatro,España 1839,,7600,223,5427679,eltelonarte@gmail.com,https://www.facebook.com/eltelonarte/,-37.99603500,-57.55709300,Precisa,Plan Podesta 2020 / Relevamiento SINCA,121665,Privado,,
6357110,6,6357,,Salas de Teatro,Buenos Aires,General Pueyrredon,Mar del Plata,Teatro Hostel,Olavarría 2373,,7600,223,155763054,teatrohostel1@gmail.com,https://web.facebook.com/Teatro-Hostel-170329939980644/,-38.01092600,-57.53939700,Precisa,Plan Podesta 2020 / Relevamiento SINCA,121666,Privado,,
6357110,6,6357,,Salas de Teatro,Buenos Aires,General Pueyrredon,Mar del Plata,Teatro Victoria,Rivadavia 2380,,7600,223,494 0238,peton.producciones@yahoo.com,https://www.facebook.com/petonproducciones/,-38.00149153,-57.54544866,,Impulsar 2020,121667,Privado,,280
6371010,6,6371,,Salas de Teatro,Buenos Aires,General San Martín,General San Martin,Las 4 Plumas Club de Arte,Islas Malvinas 2982,,1650,11,5898 6491,las4plumasclubdearte@gmail.com,Facebook:Las 4 plumas Club de Arte,-34.56486000,-58.54210000,,Plan Podesta 2020 / Relevamiento SINCA,121668,Privado,,
6434010,6,6434,,Salas de Teatro,Buenos Aires,Lanús,Lanús,Casa Teatro El Correo,Carlos Gardel 178,,1824,,,,www.facebook.com/elcorreopipi,-34.70935000,-58.39391000,,Plan Podesta 2020 / Relevamiento SINCA,121669,Privado,,
6434010,6,6434,,Salas de Teatro,Buenos Aires,Lanús,Lanús,Sur Teatral,Gobernador Bernardo de Irigoyen 410,,1824,-11,5037 2334,surteatral@gmail.com,www.facebook.com/clasesdeteatroenlanus/,-34.70585000,-58.39737000,,Plan Podesta 2020 / Relevamiento SINCA,121670,Privado,,
6434010,6,6434,,Salas de Teatro,Buenos Aires,Lanús,Lanús,La Fabrica Concert,Sarmiento 1710,,1824,,,,,-34.70562000,-58.38791000,,Plan Podesta 2020 / Relevamiento SINCA,121671,Privado,,
6441030,6,6441,,Salas de Teatro,Buenos Aires,La Plata,La Plata,La Merceria Teatro,Av. 1 n°210,,1900,221,4834437,lamerceriateatrolp@gmail.com,https://www.facebook.com/lamerceriateatro,-34.89840000,-57.95788000,Precisa,Plan Podesta 2020 / Relevamiento SINCA,121672,Privado,,
6441030,6,6441,,Salas de Teatro,Buenos Aires,La Plata,La Plata,El Sótano Club Cultural,Calle 10  967,,1900,s/d,espacioelsotano@gmail.com,https://www.facebook.com/elsotanolaplata/,,-34.91869900,-57.95152300,Precisa,Plan Podesta 2020 / Relevamiento SINCA,121673,Privado,,
6441030,6,6441,,Salas de Teatro,Buenos Aires,La Plata,La Plata,Dynamo Teatro,Calle 17 N°1754,,1904,,,,www.facebook.com/dynamoteatro/,-34.93721000,-57.94266000,,Plan Podesta 2020 / Relevamiento SINCA,121674,Privado,2018,
6441030,6,6441,,Salas de Teatro,Buenos Aires,La Plata,La Plata,TEATRO METRO,Calle 4 entre 51 y 53,,1904,221,422 3546,metroprogramacion@gmail.com,https://www.facebook.com/teatrometro/,-34.91328512,-57.94479086,,Impulsar 2020,121675,Privado,,800
6441030,6,6441,,Salas de Teatro,Buenos Aires,La Plata,La Plata,Teatro Abierto,Calle 63 N°407,,1900,-221,579 8971,teatroabiertolp@gmail.com,www.facebook.com/teatroabiertolp/,-34.91981000,-57.93433000,,Plan Podesta 2020 / Relevamiento SINCA,121676,Privado,,
6441030,6,6441,,Salas de Teatro,Buenos Aires,La Plata,La Plata,Teatro Practico,Calle 63 n°487,,1900,,,tepeteatropractico@gmail.com,www.facebook.com/tepeteatropractico/,-34.92120000,-57.93587000,,Plan Podesta 2020 / Relevamiento SINCA,121677,Privado,,
6441030,6,6441,,Salas de Teatro,Buenos Aires,La Plata,La Plata,La  Caterva de City Bell,Cantilo 471,,1896,-221,418 3597,lacatervadecitybell@outlook.com,www.facebook.com/la.caterva.7/,-34.87025000,-58.04547000,,Plan Podesta 2020 / Relevamiento SINCA,121678,Privado,,
6469080,6,6469,,Salas de Teatro,Buenos Aires,Lincoln,Lincoln,Teatro G.i.d.i ( Grupo independiente para el desarrollo integral del niño y el adolescente),Avenida 9 de Julio 348,,6070,s/d,,,facebook.com/teatro.gidi/about,-34.87086000,-61.52601400,Precisa,Plan Podesta 2020 / Relevamiento SINCA,121679,Privado,1983,
6490010,6,6490,,Salas de Teatro,Buenos Aires,Lomas de Zamora,Lomas de Zamora,Latitud Teatro,Laprida 2590,,1832,11,4282 8954,,www.instagram.com/teatrolatitud/?hl=es-la,-34.75670000,-58.43084000,,Plan Podesta 2020 / Relevamiento SINCA,121680,Privado,,
6497060,6,6497,,Salas de Teatro,Buenos Aires,Luján,Lujan,Teatro del Galpón,General Belgrano eHipólito Irigoyen ,,6700,s/d,elgalponteatro@gmail.com,https://www.facebook.com/TeatroElGalponLujan/,,-34.57650200,-59.10342300,Precisa,Plan Podesta 2020 / Relevamiento SINCA,121681,Privado,,
6518040,6,6518,,Salas de Teatro,Buenos Aires,Mar Chiquita,Mar Chiquita,TEATRO POQUELIN,Bariloche 210 ,,7609,223,5136669,https://teatropoquelin.blogspot.com/,,-37.84318300,-57.50894200,Precisa,Plan Podesta 2020 / Relevamiento SINCA,121682,Privado,,
6568010,6,6568,,Salas de Teatro,Buenos Aires,Moron,Morón,TEATRO MORON,Nuestra Señora del Buen Viaje 851,,1708,11,3460 2255,teatro.moron@hotmail.com,https://www.facebook.com/TeatroMoron/,-34.65160069,-58.62051096,,Impulsar 2020,121683,Privado,,520
6595070,6,6595,,Salas de Teatro,Buenos Aires,Olavarría,Olavarría,Punto de Giro,Maipú 3428 ,,7400,-2284,60 8003,puntodegiro@live.com.ar,www.facebook.com/puntodegiro.espacioteatral,-36.88496000,-60.32271000,,Plan Podesta 2020 / Relevamiento SINCA,121684,Privado,,
6602030,6,6602,,Salas de Teatro,Buenos Aires,Carmen de Patagones,Carmen de Patagones,El Caldero Sala Teatral Espacio Autónomo,Patagonia 277,,8504,2920,49 8136,miguelinalariguet@yahoo.com.ar,https://miguelinalariguet.wixsite.com/,-40.80983500,-62.98083200,,Plan Podesta 2020 / Relevamiento SINCA,121685,Privado,,
6609080,6,6609,,Salas de Teatro,Buenos Aires,Pehuajó,Pehuajó,Lo de Oscar,Goyena 474,,6450,-11,6142 9658,,www.instagram.com/p/CMLHjeHMGa5/,-35.81732000,-61.90549000,,Plan Podesta 2020 / Relevamiento SINCA,121686,Privado,2019,
6623100,6,6623,,Salas de Teatro,Buenos Aires,Pergamino,Pergamino,HIPÓCRITAS TEATRO UNDER ,Avenida Colón 10,,2700,s/d,,,,-33.88717600,-60.57839800,Precisa,Plan Podesta 2020 / Relevamiento SINCA,121687,Privado,,
6623100,6,6623,,Salas de Teatro,Buenos Aires,Pergamino,Pergamino,Habemus Theatrum,Jujuy 227,,2700,2477,451468,habemustheatrum@gmail.com,,-33.89345200,-60.56227900,Precisa,Plan Podesta 2020 / Relevamiento SINCA,121688,Privado,,
6665040,6,6665,,Salas de Teatro,Buenos Aires,Ramallo,Ramallo,Teatro Ramallo,Sarmiento 1127,,2915,3407,411383,teatroramallo@gmail.com,Instagram:TeatroRamallo,-33.49906000,-60.06660200,Precisa,Plan Podesta 2020 / Relevamiento SINCA,121689,Privado,,
6700060,6,6700,,Salas de Teatro,Buenos Aires,Pigué,Pigué,El REFUGIO TEATRO - PIGUE,General Urquiza 584,,8170,-2923,41 4284,elrefugiopigue@gmail.com,www.facebook.com/Elrefugio-Teatro-506840749472223/,-37.60771000,-62.40389000,,Plan Podesta 2020 / Relevamiento SINCA,121690,Privado,,
6707060,6,6707,,Salas de Teatro,Buenos Aires,Saladillo,Saladillo,LAM TEATRO,12 de Octubre 3402-3500,,7260,2344,431526,,https://www.facebook.com/teatrolam/,-35.63844300,-59.78340700,Precisa,Plan Podesta 2020 / Relevamiento SINCA,121691,Privado,2011,
6707060,6,6707,,Salas de Teatro,Buenos Aires,Saladillo,Saladillo,Comedia de Saladillo,Moreno 2999,,7260,s/d,,,http://www.teatrocomedia.com.ar/,-35.63948200,-59.77909600,Precisa,Plan Podesta 2020 / Relevamiento SINCA,121692,Público,1979,248
6756010,6,6756,,Salas de Teatro,Buenos Aires,San Isidro,Martínez,Espacio Teatral Rocha,Catamarca 1371,,1640,11,58292274,espacioculturalrocha@gmail.com,https://www.facebook.com/espaciorocha/about/,-34.48934200,-58.52190800,Precisa,Plan Podesta 2020 / Relevamiento SINCA,121693,Privado,,
6760010,6,6760,,Salas de Teatro,Buenos Aires,San Miguel,San Miguel,Teatro Estudio More Altamirano,Las Heras 1298,,1663,s/d,,teatrodelasollas@gmail.com,facebook.com/TeatroEstudioMoreAltamirano,-34.54751900,-58.70634500,Precisa,Plan Podesta 2020 / Relevamiento SINCA,121694,Privado,2006,
6763050,6,6763,,Salas de Teatro,Buenos Aires,San Nicolás de los Arroyos,San Nicolás de los Arroyos,"Espacio Artístico Independiente ""Ágora""",Almafuerte 275,,2900,336,4250695,agora.eci@gmail.com,https://www.facebook.com/agora.eci/about,-33.33668700,-60.21217800,,Plan Podesta 2020 / Relevamiento SINCA,121695,Privado,,
6791050,6,6791,,Salas de Teatro,Buenos Aires,Tandil,Tandil,Teatro  Bajosuelo Tandil,General Rodríguez 457,,7000,,,info@teatrobajosuelo.com,www.facebook.com/teatrobajosuelo/,-37.32826000,-59.13556000,,Plan Podesta 2020 / Relevamiento SINCA,121696,Privado,,
6826050,6,6826,,Salas de Teatro,Buenos Aires,Trenque Lauquen,Trenque Lauquen,Taller Actoral Henderson - Sala Beto Blanco,s/d,,,,,,,-35.97469516,-62.73230997,Centroide localidad,Plan Podesta 2020 / Relevamiento SINCA,121697,Privado,1995,
6840010,6,6840,,Salas de Teatro,Buenos Aires,Tres de Febrero,Tres de Febrero,El Bardio Teatro,Boulevard Finca 6577,,1683,11,7008 5647,elbaldioenpalomar@gmail.com,https://www.facebook.com/ELBALDIOTEATRO/,-34.59732372,-58.59369000,,Fondo Desarrollar 2020,121698,Privado,,
6854100,6,6854,,Salas de Teatro,Buenos Aires,25 De Mayo,25 De Mayo,Multiespacio de Arte,Calle 24 1482,,6660,2345,15 68 3532,https://www.facebook.com/Ciclos-multiespacio-de-arte-338047729977775/about,,-35.43520900,-60.17951500,Precisa,Plan Podesta 2020 / Relevamiento SINCA,121699,Privado,,
10049030,10,10049,,Salas de Teatro,Catamarca,Capital,San Fernando del Valle de Catamarca,Cine Teatro Catamarca,San Martín 515,s/d,s/d,383,4439129,jmjmartin36@gmail.com,www.www.turismo.catamarca.gob.ar,-28.46964600,-65.77888000,Precisa,SPOTT / Relevamiento 2017,120865,Público,0,1103
10049030,10,10049,,Salas de Teatro,Catamarca,Capital,San Fernando del Valle de Catamarca,Sala Jose Horacio Monayar Del Teatro Municipal Sur,Florida 680,s/d,s/d,s/d,s/d,s/d,s/d,-28.47964940,-65.77687429,Precisa,Relevamiento 2017,121291,Público,0,0
10049030,10,10049,,Salas de Teatro,Catamarca,Capital,San Fernando del Valle de Catamarca,Teatro Urbano Girardi,Enrique Ocampo 58,s/d,s/d,383,4437420,s/d,s/d,-28.47045400,-65.78747500,Precisa,Relevamiento 2017,121554,Público,1984,0
10049030,10,10049,,Salas de Teatro,Catamarca,Capital,San Fernando del Valle de Catamarca,La Ramona sala teatral y espacio cultural,Rojas 414 ,,4700,-383,492 1709,,www.facebook.com/laramonacultural/,-28.46438000,-65.78126000,,Plan Podesta 2020 / Relevamiento SINCA,121700,Privado,,
22140060,22,22140,,Salas de Teatro,Chaco,San Fernando,Resistencia,Sala 88,French 845,s/d,3500,362,4445570,sala88@arnet.com.ar,www.sala88.com.ar ,-27.44747400,-58.97562200,Precisa,Plan Podesta 2020 / Relevamiento SINCA,120169,Privado,1985,300
22021010,22,22021,,Salas de Teatro,Chaco,Comandante Fernandez,Roque Saenz Peña,Sala Septiembre,Calle 1 nº y 8 ,s/d,3700,364,4533512,carloshugocanto@gmail.com,s/d,-26.79420800,-60.44020100,Precisa,Plan Podesta 2020 / Relevamiento SINCA,120235,Privado,1996,200
22140060,22,22140,,Salas de Teatro,Chaco,San Fernando,Resistencia,La Mascara Teatro,Posadas 76,s/d,3500,362,4305495,teatrolamascarachaco@gmail.com,www.lamascarateatro.com,-27.44571200,-58.99084100,Precisa,Plan Podesta 2020 / Relevamiento SINCA,120249,Privado,1997,200
22112030,22,22112,,Salas de Teatro,Chaco,O' Higgins,San Bernardo ,La Estiga de San Bernardo,San Lorenzo 643,s/d,3701,373,5531941,sergioarenillas@yahoo.com.ar,https://www.facebook.com/LaEstigiateatro,-27.29484100,-60.67496500,Precisa,Plan Podesta 2020 / Relevamiento SINCA,120315,Privado,2003,200
22021010,22,22021,,Salas de Teatro,Chaco,Comandante Fernandez,Roque Saenz Peña,La Usina,Ruta 16 Frente Politécnica Juan XXIII (Colectora Sur),s/d,3700,373,2422797,usinaespacio@gmail.com,www.lausinateatro.blogspot.com.ar,-26.80086200,-60.45928200,Precisa,Plan Podesta 2020 / Relevamiento SINCA,120455,Privado,2011,129
22140060,22,22140,,Salas de Teatro,Chaco,San Fernando,Resistencia,Artes del Movimiento,A. J. J. Castelli 191,s/d,3500,362,4741642,artesdelmovimiento@yahoo.com.ar,s/d,-27.45905000,-58.99195000,Precisa,Relevamiento 2017,120529,Privado,2014,60
22105010,22,22105,,Salas de Teatro,Chaco,9 de Julio,Las Breñas,Auditorio Inmigrantes,Av. Gral Jones 1130,s/d,3722,s/d,s/d,s/d,s/d,-26.95916600,-61.28020000,Precisa,Relevamiento 2017,120657,Privado,0,0
22140060,22,22140,,Salas de Teatro,Chaco,San Fernando,Resistencia,Centro Cultural Galatea,Mendoza 590,s/d,3500,362,4531574,centroculturalgalatea@gmail.com,www.centroculturalgalatea.blogspot.com.ar,-27.45197114,-58.99774798,Precisa,Plan Podesta 2020 / Relevamiento SINCA,120783,Privado,0,0
22091010,22,22091,,Salas de Teatro,Chaco,Maipu,Tres Isletas ,Cine Teatro Luis Landriscina,Moreno 250,s/d,s/d,364,461124,municipio.ti@hotmail.com,s/d,-26.33507000,-60.42639400,Precisa,Relevamiento 2017,120879,Público,0,400
22140060,22,22140,,Salas de Teatro,Chaco,San Fernando,Resistencia,Cine Teatro Obrero,Brown 1401,s/d,3500,373,5402968,cine.teatro.obrero@gmail.com,s/d,-27.48892400,-58.92589400,Precisa,Relevamiento 2017,120886,Privado,0,0
22140060,22,22140,,Salas de Teatro,Chaco,San Fernando,Resistencia,Danzarte,Hipólito Yrigoyen 231,s/d,3500,372,2451717,dan_za_rte@yahoo.com.ar,s/d,-27.45220300,-58.98358900,Precisa,Relevamiento 2017,120936,Privado,0,0
22021010,22,22021,,Salas de Teatro,Chaco,Comandante Fernandez,Roque Saenz Peña,Juglarias,Calle 15 nº 530,s/d,3700,373,2420328,juglarias_producciones@hotmail.com,s/d,-26.73872700,-60.48922900,Precisa,Relevamiento 2017,121111,Privado,0,100
22140060,22,22140,,Salas de Teatro,Chaco,San Fernando,Resistencia,La Fabrica de Artes,9 de Julio 2890,s/d,3500,s/d,s/d,s/d,s/d,-27.47401200,-58.96070800,Precisa,Relevamiento 2017,121148,Privado,0,200
22140060,22,22140,,Salas de Teatro,Chaco,San Fernando,Resistencia,Sala Azul de Teatro,San Martin 1454,s/d,3500,373,1460009,s/d,s/d,-27.09105163,-61.08367903,Precisa,Relevamiento 2017,121275,Privado,0,50
22039010,22,22039,,Salas de Teatro,Chaco,2 de Abril,Hermoso Campo,Salon de Usos Multiples ,Avenida del Libertador,s/d,3733,s/d,s/d,s/d,s/d,-27.60883999,-61.34415077,Precisa,Secretaria de Cultura de Hermoso Campo / Relevamiento 2017,121320,Público,0,0
22028010,22,22028,,Salas de Teatro,Chaco,Chacabuco,Charata,TEATRO EL GALPON ,Pasaje Taco Medina s/n,s/d,3730,373,620889,charata21@yahoo.com,s/d,-27.11487100,-61.30352500,Precisa,Plan Podesta 2020 / Relevamiento SINCA,121545,Privado,0,200
22098030,22,22098,,Salas de Teatro,Chaco,Mayor Luis J. Fontana,Villa Angela,DAMOSALA,Juan B.Justo y Sarmiento ,,3540,,,,https://www.facebook.com/Damosala-2402945166652321,-27.57942189,-60.70946096,,Fondo Desarrollar 2020,121713,Privado,,
26007020,26,26007,,Salas de Teatro,Chubut,Biedma,Puerto Madryn,El Galpón de la Escalera,San Martín 894,s/d,9120,280,4578922,elgalpondelaescalera@yahoo.com.ar,s/d,-42.77471554,-65.03436782,Precisa,Plan Podesta 2020 / Relevamiento SINCA,120163,Privado,1984,0
26021030,26,26021,,Salas de Teatro,Chubut,Escalante,Comodoro Rivadavia,Teatro Astra,Simeon Savino 1120,s/d,9000,297,4865057,hola@labibliotecadeastra.com,www.labibliotecadeastra.com,-45.87595537,-67.51466223,Localidad,Plan Podesta 2020 / Relevamiento SINCA,120374,Privado,2007,0
26021030,26,26021,,Salas de Teatro,Chubut,Escalante,Comodoro Rivadavia,Centro Teatro,Alvear 920,s/d,9000,297,4463559,centroteatro@yahoo.com.ar,s/d,-45.86072300,-67.49735200,Precisa,Relevamiento 2017,120857,Privado,0,250
26014090,26,26014,,Salas de Teatro,Chubut,Cushamen,Lago Puelo,I.S.F.D.A N° 814 ,Km 4 de la Ruta Provincial N16,s/d,9211,294,4499085,814lagopuelo@gmail.com,www.isfd814.chu.infd.edu.ar,-42.06729231,-71.59815756,Localidad,Relevamiento 2017,121098,Público,0,0
26077040,26,26077,,Salas de Teatro,Chubut,Rawson,Trelew,Instituto S. Formación Docente Artística Nº 805,Roque Gonzalez y Jose Berreta,s/d,9100,280,4427668,nivelbasico805@gmail.com,www.isfd805.chu.infd.edu.ar,-43.24835386,-65.31038133,Localidad,SPOTT / Relevamiento 2017,121105,Público,0,220
26007020,26,26007,,Salas de Teatro,Chubut,Biedma,Puerto Madryn,Teatro de la Rosada,Paulina Escardo 187,s/d,9120,280,4204159,s/d,s/d,-42.76101050,-65.03820340,Precisa,Plan Podesta 2020 / Relevamiento SINCA,121422,Privado,0,0
26007020,26,26007,,Salas de Teatro,Chubut,Biedma,Puerto Madryn,Teatro del Muelle,Avenida Guillermo Rawson 60,s/d,9120,280,4450307,s/d,s/d,-42.76263500,-65.03544700,Precisa,Relevamiento 2017,121434,Privado,0,0
26077040,26,26077,,Salas de Teatro,Chubut,Rawson,Trelew,Teatro Español,25 de Mayo 237,s/d,9100,280,4434336,sociedad1@speedy.com.ar,s/d,-43.25254590,-65.30962069,Precisa,Relevamiento 2017,121463,Privado,0,0
26077040,26,26077,,Salas de Teatro,Chubut,Rawson,Trelew,Teatro Verdi,San Martin 126,s/d,9100,280,4431398,s/d,s/d,-43.25047660,-65.31042218,Precisa,Argentores / Relevamiento 2017,121556,Privado,0,0
26014090,26,26014,,Salas de Teatro,Chubut,Cushamen,Lago Puelo,Teatro Casero,Callejón del Tiempo s/n,,9211,294,15 410 0966,infoteatrocasero@gmail.com,http://companiateatrocasero.com/,-42.03118000,-71.58789000,,,121714,Privado,,
26021030,26,26021,,Salas de Teatro,Chubut,Escalante,Comodoro Rivadavia,Infinito Espacio Urbano,Mitre 989,,9000,297,538 8655,teatroamakaik@gmail.com,https://www.facebook.com/infinitoespaciourbano/,-45.86016000,-67.48290000,,,121715,Privado,,
26035030,26,26035,,Salas de Teatro,Chubut,Futaleufu,Esquel,Tercera llamada,Alvear 1324 ,,9200,2945,15 405501,,https://www.facebook.com/tercerallamada.esquel.7/about,-42.91012000,-71.31921000,,,121716,Privado,,
26035030,26,26035,,Salas de Teatro,Chubut,Futaleufu,Esquel,La Juntadera,Urquiza 254,,9200,2945,334556,teatrolajuntadera@gmail.com,https://web.facebook.com/teatrolajuntadera/?_rdc=1&_rdr,-42.91151500,-71.30942000,Precisa,Plan Podesta 2020 / Relevamiento SINCA,121717,Privado,,
26042030,26,26042,,Salas de Teatro,Chubut,Gaiman,Gaiman,El Fondo Espacio de Arte,San Lorenzo 57,,9105,,,espaciodearteelfondo@gmail.com,https://web.facebook.com/espacioelfondo/?_rdc=1&_rdr,-43.28576700,-65.50849700,Precisa,Plan Podesta 2020 / Relevamiento SINCA,121718,Privado,,
26077040,26,26077,,Salas de Teatro,Chubut,Rawson,Trelew,El Rayo Verde,Ameghino 113,,9100,280,466 6146,elrayoverdeteatro@gmail.com,https://web.facebook.com/El-Rayo-Verde-teatro-1069760433091157/,-43.25194600,-65.31585000,Precisa,Plan Podesta 2020 / Relevamiento SINCA,121719,Privado,,
26077040,26,26077,,Salas de Teatro,Chubut,Rawson,Trelew,La Podestá Territorio de Arte,Scalabrini Ortíz 707,,9100,280,462 2415,,https://www.facebook.com/lapodesta.territoriodearte/about,-43.26072000,-65.31773000,,,121720,Privado,,
2000010,2,2000,,Salas de Teatro,Ciudad Autónoma de Buenos Aires,Ciudad Autónoma de Buenos Aires,Ciudad Autonoma de Buenos Aires,Teatro Opera  ,Corrientes  Av. 860,s/d,1043,11,43261335,mrodriguez@ciepresenta.com.ar,www.operaorbiseguros.com,-34.60353800,-58.37888700,Precisa,Proteatro 2017 / Relevamiento 2017,120002,Privado,1872,1614
2000010,2,2000,,Salas de Teatro,Ciudad Autónoma de Buenos Aires,Ciudad Autónoma de Buenos Aires,Ciudad Autonoma de Buenos Aires,Teatro Coliseo  ,Marcelo T. de Alvear 1125 ,s/d,1058,11,48143056,info@teatrocoliseo.org.ar,www.teatrocoliseo.org.ar,-34.59683800,-58.38303200,Precisa,AADET /Proteatro 2017,120018,Privado,1905,867
2000010,2,2000,,Salas de Teatro,Ciudad Autónoma de Buenos Aires,Ciudad Autónoma de Buenos Aires,Ciudad Autonoma de Buenos Aires,Teatro El Nacional Sancor Seguros,Corrientes  Av. 960 ,s/d,1043,11,43264218,info@teatroelnacional.com,www.teatroelnacional.com,-34.60375476,-58.38029299,Precisa,AADET /Proteatro 2017,120020,Privado,1906,1022
2000010,2,2000,,Salas de Teatro,Ciudad Autónoma de Buenos Aires,Ciudad Autónoma de Buenos Aires,Ciudad Autonoma de Buenos Aires,Teatro Maipo,Esmeralda 443,P.B.,1007,11,53528384,contacto@maipo.com.ar,www.maipo.com.ar,-34.60301000,-58.37807900,Precisa,AADET /Proteatro 2017,120025,Privado,1908,735
2000010,2,2000,,Salas de Teatro,Ciudad Autónoma de Buenos Aires,Ciudad Autónoma de Buenos Aires,Ciudad Autonoma de Buenos Aires,Teatro Cervantes - Teatro Nacional Argentino -,Libertad 815,s/d,1012,11,48164224,s/d,www.teatrocervantes.gov.ar,-34.59914200,-58.38334400,Precisa,Argentores / Proteatro / Relevamiento 2017,120049,Público,1921,0
2000010,2,2000,,Salas de Teatro,Ciudad Autónoma de Buenos Aires,Ciudad Autónoma de Buenos Aires,Ciudad Autonoma de Buenos Aires,Teatro del Pueblo,Roque Sáenz Peña 943,Subsuelo,1035,11,43263606,teatrodelpueblosomi@gmail.com,www.teatrodelpueblo.org.ar,-34.60446700,-58.38022000,Precisa,Plan Podesta 2020 / Relevamiento SINCA,120067,Privado,1930,179
2000010,2,2000,,Salas de Teatro,Ciudad Autónoma de Buenos Aires,Ciudad Autónoma de Buenos Aires,Ciudad Autonoma de Buenos Aires,Teatro Empire,Hipólito Yrigoyen 1934,s/d,1089,11,49538254,teatroempire@gmail.com,www.teatroempire.com,-34.61045200,-58.39384600,Precisa,Plan Podesta 2020 / Relevamiento SINCA,120075,Privado,1934,296
2000010,2,2000,,Salas de Teatro,Ciudad Autónoma de Buenos Aires,Ciudad Autónoma de Buenos Aires,Ciudad Autonoma de Buenos Aires,Gran Rex,Corrientes  Av. 857,s/d,s/d,11,43257300,daniela@teatro-granrex.com.ar,www.teatro-granrex.com.ar,-34.60353500,-58.37886000,Precisa,Proteatro 2017 / Relevamiento 2017,120081,Privado,1937,3262
